"nanyangSiteId","siteNameZh","siteNameAlt1","latitude","longitude"
"tt-mb-0001","惟善堂","Wei Shan Tang",25.017958,121.527533
"tt-mb-0002","惟善堂","Wei Shan Tang",25.017958,121.527533
"tt-mb-0003","聖靈宮","Sheng Ling Gong",25.017958,121.527533
"tt-mb-0004","台北市聖靈寺","Taipei Sheng Ling Si",25.017958,121.527533
"tt-mb-0005","華嚴蓮社﹝草創期 ﹞","Huayen Lotus Society",25.041277,121.534613
"tt-mb-0006","華嚴蓮社","Huayen Lotus Society",25.040319,121.530767
"tt-mb-0007","淨土宗佈教資團","Jing Tu Zong Bu Jiao Zi Tuan",25.044908,121.52426
"tt-mb-0008","淨土宗善導寺","Jing Tu Zong Shan Dao Si",25.044908,121.52426
"tt-mb-0009","台北市佛教會","The Buddhist Association of Taipei",25.045048,121.525169
"tt-mb-0010","觀音禪堂","Guan Yin Chan Tang",25.039045,121.521758
"tt-mb-0011","東和禪寺","Dong He Chan Si",25.039045,121.521758
"tt-mb-0012","寶藏巖﹝草創期﹞","Bao Cang Yan",25.010484,121.533212
"tt-mb-0013","寶藏寺","Bao Cang Si",25.010484,121.533212
"tt-mb-0014","寶藏巖","Bao Cang Yan",25.010484,121.533212
"tt-mb-0015","淨慧講堂","Jing Hui Jiang Tang",25.027955,121.521502
"tt-mb-0016","了覺寺","Liao Jue Si",25.025247,121.522554
"tt-mb-0017","十普寺","Shi Pu Si",25.025247,121.522554
"tt-mb-0018","光華佛堂","Guang Hua Fo Tang",25.034214,121.496359
"tt-mb-0019","光華佛堂","Guang Hua Fo Tang",25.036961,121.499691
"tt-mb-0020","光華寺","Guang Hua Si",25.023949,121.515312
"tt-mb-0021","通法寺﹝草創期 ﹞","Tong Fa Si",25.026078,121.516809
"tt-mb-0022","通法寺","Tong Fa Si",25.026078,121.516809
"tt-mb-0023","寶纈堂","Bao Xie Tang",25.023878,121.517781
"tt-mb-0024","蓮雲禪苑","Lian Yun Chan Yuan",25.03446,121.529749
"tt-mb-0025","創見堂人生禪學會","Chuang Jian Tang Ren Sheng Chan Xue Hui",25.045997,121.519131
"tt-mb-0026","靈山講堂","Ling Shan Jiang Tang",25.046015,121.519063
"tt-mb-0027","大乘精舍﹝草創期 ﹞","Da Sheng Jing She",25.046055,121.512063
"tt-mb-0028","大乘精舍﹝草創期 ﹞","Da Sheng Jing She",25.045543,121.510718
"tt-mb-0029","大乘精舍","Da Sheng Jing She",25.045238,121.509972
"tt-mb-0030","佛陀教育基金會","The Corporate Body of the Buddha Educational Foundation",25.040538,121.525939
"tt-mb-0031","寧瑪巴喇榮三乘法林佛學會","Nyingma Larong Sancheng Falin Buddhist Institute",25.025204,121.518915
"tt-mb-0032","白馬精舍","Bai Ma Jing She",25.047085,121.519649
"tt-mb-0033","圓通講堂","Yuan Tong Jiang Tang",25.046787,121.513983
"tt-mb-0034","十方觀音佛堂","Shi Fang Guan Yin Fo Tang",25.043425,121.525902
"tt-mb-0035","佛燈會","Fo Deng Hui",25.045534,121.524838
"tt-mb-0036","大雄精舍","Da Xiong Jing She",25.033807,121.531957
"tt-mb-0037","中華十方準提學會","Zhong Hua Shi Fang Zhun Ti Xue Hui",25.033807,121.531957
"tt-mb-0038","無極瑤顯宮","Wu Ji Yao Xian Gong",25.02718,121.51451
"tt-mb-0039","福佛宮","Fu Fo Gong",25.020756,121.518837
"tt-mb-0040","佛醫研究所","Fo Yi Yan Jiu Suo",25.032593,121.520227
"tt-mb-0041","南天聯合府慈善堂","Nan Tian Lian He Fu Ci Shan Tang",25.034298,121.511546
"tt-mb-0042","寧瑪巴格龍寺佛學中心","Nyingma Ba Ge Long Si Buddhist Center",25.038946,121.532528
"tt-mb-0043","香光尼僧團印儀學苑","Xiang Guang Ni Seng Tuan Yin Yi Xue Yuan",25.040575,121.529567
"tt-mb-0044","菩提行願學佛會","Bodhi Heng Yuan Buddhist Association",25.031736,121.518685
"tt-mb-0045","聞思佛學圖書館","Wen Si Buddhism library",25.016925,121.531093
"tt-mb-0046","佛教盲人文化中心","Fo Jiao Mang Ren Wen Hua Zhong Xin",25.01968,121.528636
"tt-mb-0047","台灣禪宗佛教會","Taiwan Zen Buddhist Association",25.040575,121.529567
"tt-mb-0048","中國佛教會","Chinese Buddhist Association",25.045048,121.525169
"tt-mb-0049","妙音講堂","Miao Yin Jiang Tang",25.045769,121.510579
"tt-mb-0050","奧克南禪修中心佛學圖書室","Ao Ke Nan Chan Xiu Zhong Xin Fo Xue Tu Shu Shi",25.033858,121.531329
"tt-mb-0051","慈光社","Ci Guang She",25.031752,121.520139
"tt-mb-0052","慈音佛堂","Ci Yin Fo Tang",25.020637,121.527376
"tt-mb-0053","如來禪寺","Ru Lai Chan Si",25.022953,121.524238
"tt-mb-0054","金光寺","Jin Guang Si",25.026307,121.517873
"tt-mb-0055","天心紫蓮禪苑","Tian Xin Zi Lian Chan Yuan",25.037093,121.532477
"tt-mb-0056","大佛殿","Da Fo Dian",25.045274,121.510943
"tt-mb-0057","須彌山台北佛學院","Xu Mi Shan Taipei Fo Xue Yuan",25.030309,121.504247
"tt-mb-0058","法鼓德貴學苑","Dharma Drum Degui Academy",25.043836,121.510769
"tt-mb-0059","法鼓山中正精舍﹝草創期 ﹞","Dharma Drum Mountain Zhong Zheng Dharma Center",25.038018,121.528492
"tt-mb-0060","法鼓山中正精舍﹝暫不對外開放 ﹞","Dharma Drum Mountain Zhong Zheng Dharma Center",25.038018,121.528492
"tt-mb-0061","台北地藏淨宗學會","Taipei Di Cang Pureland Learning Center",25.043861,121.509918
"tt-mb-0062","中台山普泉精舍","Chung Tai Shan Pu Quan Meditation Center",25.067616,121.518396
"tt-mb-0063","中台山普洲精舍","Chung Tai Shan Pu Zhou Meditation Center",25.045729,121.508789
"tt-mb-0064","普濟寺﹝草創期﹞","Pu Ji Si",25.050476,121.514066
"tt-mb-0065","普濟寺﹝草創期 ﹞","Pu Ji Si",25.050477,121.514066
"tt-mb-0066","台北市普濟寺","Taipei Pu Ji Si",25.050478,121.514066
"tt-mb-0067","普濟寺長安講堂","Pu Ji Si Chang An Jiang Tang",25.050492,121.518397
"tt-mb-0068","聖觀佛堂","Sheng Guan Fo Tang",25.054287,121.519303
"tt-mb-0069","聖觀寺","Sheng Guan Si",25.054287,121.519303
"tt-mb-0070","龍雲寺","Long Yun Si",25.026078,121.516809
"tt-mb-0071","菩提講堂","Pu Ti Jiang Tang",25.052163,121.52015
"tt-mb-0072","平光寺","Ping Guang Si",25.075318,121.517651
"tt-mb-0073","臨濟宗大橋佈教所","Lin Ji Zong Da Qiao Bu Jiao Suo",25.066961,121.509073
"tt-mb-0074","勸化堂","Quan Hua Tang",25.066961,121.509073
"tt-mb-0075","福慶堂","Fu Qing Tang",25.059639,121.511857
"tt-mb-0076","興善堂","Xing Shan Tang",25.059639,121.511857
"tt-mb-0077","至善堂","Zhi Shan Tang",25.059639,121.511857
"tt-mb-0078","台灣佛教道友會","Taiwan Fo Jiao Dao You Hui",25.059491,121.514173
"tt-mb-0079","靈巖山台北大稻埕念佛會","Ling Yan Shan Taipei Da Dao Cheng Chanting Society",25.053641,121.508178
"tt-mb-0080","正德佛堂台北分院","Zheng De Fo Tang Taipei Fen Yuan",25.063164,121.517261
"tt-mb-0081","福德宮","Fu De Gong",25.062258,121.509708
"tt-mb-0082","天台止觀實踐堂","Tian Tai Zhi Guan Shi Jian Tang",25.05549,121.508803
"tt-mb-0083","禪淨寺","Chan Jing Si",25.057089,121.520227
"tt-mb-0084","金斗宮","Jin Dou Gong",25.075401,121.511884
"tt-mb-0085","真聖堂","Zhen Sheng Tang",25.055476,121.512121
"tt-mb-0086","大濟佛堂","Da Ji Fo Tang",25.058193,121.517982
"tt-mb-0087","台北市佛教正覺同修會","Taipei Fo Jiao Zheng Jue Tong Xiu Hui",25.07267,121.519153
"tt-mb-0088","報安堂","Bao An Tang",25.066793,121.515282
"tt-mb-0089","行聖宮","Xing Sheng Gong",25.073063,121.511902
"tt-mb-0090","地藏庵","Di Cang An",25.051175,121.513203
"tt-mb-0091","廣善堂","Guang Shan Tang",25.071561,121.514412
"tt-mb-0092","法鼓山大同共修處","Dharma Drum Mountain Da Tong Practice Center",25.069766,121.514846
"tt-mb-0093","法鼓山大同辦事處","Dharma Drum Mountain Da Tong Office",25.070554,121.519053
"tt-mb-0094","達香寺","Da Xiang Si",25.050383,121.515032
"tt-mb-0095","港口奉天宮","Gang Kou Feng Tian Gong",25.058803,121.520413
"tt-mb-0096","重閣講堂","Chong Ge Jiang Tang",25.050448,121.518488
"tt-mb-0097","仁德堂","Ren De Tang",25.059727,121.508643
"tt-mb-0098","慈聖寺","Ci Sheng Si",25.072695,121.511451
"tt-mb-0099","普安精舍","Pu An Jing She",25.072084,121.517207
"tt-mb-0100","至妙寺","Zhi Miao Si",25.059472,121.515786
"tt-mb-0101","生命電視台北生命道場","Sheng Ming Dian Shi Taipei Sheng Ming Dao Chang",25.056793,121.512335
"tt-mb-0102","寶吉祥佛教文化交流協會","Bao Ji Xiang Fo Jiao Wen Hua Jiao Liu Xie Hui",25.063135,121.516946
"tt-mb-0103","寧瑪巴南卡穹宗中心","Nyingma Nan ka Qiong zong Buddhist Center",25.065777,121.517852
"tt-mb-0104","中華敦珠佛學苑","Zhong Hua Dun Zhu Fo Xue Yuan",25.054096,121.512908
"tt-mb-0105","台北烏金華苑","Taipei Wu Jin Hua Yuan",25.076332,121.514896
"tt-mb-0106","佛頂山朝聖寺台北總會","Fo Ding Shan Chao Sheng Si Taipei Zong Hui",25.050089,121.51658
"tt-mb-0107","孔雀明王法共修道場","Kong Que Ming Wang Fa Gong Xiu Dao Chang",25.054626,121.514979
"tt-mb-0108","圓山蓮社","Yuan Shan Lian She",25.072063,121.518166
"tt-mb-0109","大同悟覺精舍","Da Tong Wu Jue Jing She",25.052742,121.518617
"tt-mb-0110","西密佛教雲慈正覺會台北佛堂","Xi Mi Fo Jiao Yun Ci Zheng Jue Hui Taipei Fo Tang",25.059779,121.518424
"tt-mb-0111","台北正覺第二講堂","Taipei Zheng Jue Di Er Jiang Tang",25.072497,121.519093
"tt-mb-0112","創價學會大龍峒講堂","Chuang Jia Xue Hui Da Long Tong Jiang Tang",25.072878,121.517311
"tt-mb-0113","金源寺","Jin Yuan Si",25.048931,121.511419
"tt-mb-0114","慧日講堂","Light of Wisdom Dharma Hall",25.049762,121.541372
"tt-mb-0115","圓山精舍","Yuan Shan Jing She",25.072208,121.520783
"tt-mb-0116","臨濟護國禪寺","Lin Ji Hu Guo Chan Si",25.072208,121.520783
"tt-mb-0117","中台山普觀精舍","Chung Tai Shan Pu Guan Meditation Center",25.0845,121.549199
"tt-mb-0118","中台山普觀精舍","Chung Tai Shan Pu Guan Meditation Center",25.081778,121.590558
"tt-mb-0119","中台山普圓精舍","Chung Tai Shan Pu Yuan Meditation Center",25.068272,121.52206
"tt-mb-0120","觀音寺","Guan Yin Si",25.086079,121.5554
"tt-mb-0121","西方寶剎","Xi Fang Bao Cha",25.086079,121.5554
"tt-mb-0122","劍潭寺","Jian Tan Si",25.086079,121.5554
"tt-mb-0123","劍潭古寺","Jian Tan Gu Si",25.086079,121.5554
"tt-mb-0124","大忠宮","Da Zhong Gong",25.080731,121.52647
"tt-mb-0125","台北市蓮友念佛團","Taipei Lian You Nian Fo Tuan",25.050096,121.541919
"tt-mb-0126","金剛寺","Jin Gang Si",25.081077,121.525999
"tt-mb-0127","本願山圓通巖","Ben Yuan Shan Yuan Tong Yan",25.081605,121.528691
"tt-mb-0128","圓山地藏庵","Yuan Shan Di Cang An",25.073039,121.520705
"tt-mb-0129","圓玄學社","Yuan Xuan Xue She",25.055565,121.533522
"tt-mb-0130","妙道院","Miao Dao Yuan",25.064991,121.528814
"tt-mb-0131","台北行天宮","Taipei Xing Tian Gong",25.063091,121.533939
"tt-mb-0132","大覺禪舍","Da Jue Chan She",25.050419,121.52419
"tt-mb-0133","靖心殿","Jing Xin Dian",25.081187,121.527913
"tt-mb-0134","圓山藥師寺","Yuan Shan Yao Shi Si",25.081265,121.527216
"tt-mb-0135","慈雲寺北區護法會","Ci Yun Si Bei Qu Hu Fa Hui",25.078935,121.545822
"tt-mb-0136","明山寺","Ming Shan Si",25.086399,121.553703
"tt-mb-0137","法鼓山中山精舍﹝草創期 ﹞","Dharma Drum Mountain Zhong Shan Dharma Center",25.062903,121.525392
"tt-mb-0138","法鼓山中山精舍","Dharma Drum Mountain Zhong Shan Dharma Center",25.062903,121.525392
"tt-mb-0139","慈濟中山共修處","Ci Ji Zhong Shan Gong Xiu Chu",25.056193,121.530336
"tt-mb-0140","慈音居士會","Ci Yin Ju Shi Hui",25.077722,121.545542
"tt-mb-0141","靜修堂","Jing Xiu Tang",25.058979,121.526224
"tt-mb-0142","中國藏密薩迦佛學研究會","Cang Mi Sa Jia Fo Xue Yan Jiu Hui (R.O.C.)",25.048592,121.532446
"tt-mb-0143","中華佛教青年會","Zhong Hua Buddhist Young Buddhists Society",25.048222,121.534001
"tt-mb-0144","四面佛","Si Mian Fo",25.054683,121.533372
"tt-mb-0145","慈濟中山聯絡處","Ci Ji Zhong Shan Lian Luo Chu",25.064388,121.536546
"tt-mb-0146","正音精舍","Zheng Yin Jing She",25.08831,121.536641
"tt-mb-0147","台北市佛教青年會","Taipei Buddhist Young Buddhists Society",25.047605,121.529646
"tt-mb-0148","佛祖寺","Fo Zu Si",25.082315,121.527908
"tt-mb-0149","正願寺","Zheng Yuan Si",25.087701,121.551344
"tt-mb-0150","慈德佛堂","Ci De Fo Tang",25.059237,121.531869
"tt-mb-0151","祇園精舍","Qi Yuan Jing She",25.058132,121.535767
"tt-mb-0152","普賢講堂","Pu Xian Jiang Tang",25.062513,121.525203
"tt-mb-0153","妙吉祥佛學會","Miao Ji Xiang Buddhist Institute",25.059528,121.524858
"tt-mb-0154","智泉講堂","Zhi Quan Jiang Tang",25.060754,121.541782
"tt-mb-0155","佛法山海天禪寺","Fo Fa Shan Hai Tian Chan Si",25.053669,121.543737
"tt-mb-0156","法爾禪修中心","Fa Er Chan Xiu Zhong Xin",25.049199,121.535246
"tt-mb-0157","覺風學苑","Jue Feng Xue Yuan",25.050621,121.530659
"tt-mb-0158","大願佛教蓮社","Da Yuan Buddhist Lotus Society",25.062206,121.536022
"tt-mb-0159","妙持學苑","Miao Chi Xue Yuan",25.063766,121.524915
"tt-mb-0160","台北竹巴噶舉佛學中心","Taipei Zhu Ba Kagyu Buddhist Center",25.066757,121.526115
"tt-mb-0161","光明王寺台北道場","Guang Ming Wang Si Taipei Dao Chang",25.057533,121.526737
"tt-mb-0162","竹巴噶舉噶爾謝祖佛學中心","Zhu Ba Kagyu Ga Er Xie Zu Buddhist Center",25.066447,121.53638
"tt-mb-0163","大悲精舍","Da Bei Jing She",25.065622,121.535607
"tt-mb-0164","大直普惠中心","Da Zhi Pu Hui Zhong Xin",25.083278,121.54797
"tt-mb-0165","台北市寧瑪白玉大圓滿佛學會","Taipei Nyingma Palyul Da Yuan Man Buddhist Institute",25.051148,121.524742
"tt-mb-0166","桑千偉薩卻林佛學研究會","Sang Qian Wei Sa Que Lin Fo Xue Yan Jiu Hui",25.057059,121.522013
"tt-mb-0167","台灣噶舉佛學院","Taiwan Kagyu Fo Xue Yuan",25.058597,121.529499
"tt-mb-0168","台北敏卓林中心","Taipei Mindrolling Center",25.055936,121.531454
"tt-mb-0169","噶陀十方尊聖佛學會","Kathok Choklay Namgyal Buddhist Institute",25.054402,121.543168
"tt-mb-0170","中華民國密宗薩迦佛學會","Sakya Buddhist Institute (R.O.C.)",25.060457,121.5322
"tt-mb-0171","護國大悲院","Hu Guo Da Bei Yuan",25.050032,121.524937
"tt-mb-0172","修元禪院","Xiu Yuan Chan Yuan",25.064337,121.534626
"tt-mb-0173","菩提林佛堂","Pu Ti Lin Fo Tang",25.058465,121.529366
"tt-mb-0174","雲山寺","Yun Shan Si",25.050605,121.525467
"tt-mb-0175","圓覺講堂","Yuan Jue Jiang Tang",25.057184,121.531406
"tt-mb-0176","淨華禪苑","Jing Hua Chan Yuan",25.058579,121.531382
"tt-mb-0177","慧德講堂","Hui De Jiang Tang",25.048602,121.534125
"tt-mb-0178","法雨同修會","Fa Yu Tong Xiu Hui",25.066886,121.535592
"tt-mb-0179","觀世音講堂","Guan Shi Yin Jiang Tang",25.046726,121.531853
"tt-mb-0180","法華講堂","Fa Hua Jiang Tang",25.05666,121.52789
"tt-mb-0181","蓮池庵","Lian Chi An",25.04834,121.521133
"tt-mb-0182","中華民國佛教青年會","R.O.C. Buddhist Young Buddhists Society",25.048394,121.527396
"tt-mb-0183","噶陀佛學院","Kathok Buddhist Institute",25.046051,121.543662
"tt-mb-0184","創價學會講堂","Chuang Jia Xue Hui Jiang Tang",25.060954,121.52443
"tt-mb-0185","創價學會錦州文化會館師弟會堂","Chuang Jia Xue Hui Jin Zhou Wen Hua Hui Guan Shi Di Hui Tang",25.060954,121.52443
"tt-mb-0186","創價學會錦州文化會館藝文會堂","Chuang Jia Xue Hui Jin Zhou Wen Hua Hui Guan Yi Wen Hui Tang",25.061403,121.52456
"tt-mb-0187","中華大乘佛學會長安教室","Zhong Hua Da Sheng Fo Xue Hui Chang An Jiao Shi",25.048596,121.534007
"tt-mb-0188","中華大乘佛學會","Zhong Hua Da Cheng Buddhist Institute",25.048596,121.534007
"tt-mb-0189","生命電視台北中心","Sheng Ming Dian Shi Taipei Zhong Xin",25.047195,121.532305
"tt-mb-0190","創價學會合江講堂","Chuang Jia Xue Hui He Jiang Jiang Tang",25.055366,121.539307
"tt-mb-0191","大自在講堂","Da Zi Zai Jiang Tang",25.054418,121.54254
"tt-mb-0192","萬佛山慈明講堂","Wan Fo Shan Ci Ming Jiang Tang",25.048106,121.543164
"tt-mb-0193","四諦講修佛學會","Si Di Jiang Xiu Buddhist Institute",25.055927,121.523375
"tt-mb-0194","法鼓山中山共修處﹝南京東路 ﹞","Dharma Drum Mountain Zhong Shan Practice Center",25.051499,121.535967
"tt-mb-0195","法鼓山中山共修處﹝松江路 ﹞","Dharma Drum Mountain Zhong Shan Practice Center",25.047213,121.533404
"tt-mb-0196","無所得佛堂","Wu Suo De Fo Tang",25.056666,121.521097
"tt-mb-0197","法光寺","Fa Kuang Temple",25.049908,121.556634
"tt-mb-0198","佛光山普門精舍","Fo Guang Shan Pu Men Temple Meditation Center",25.017668,121.53181
"tt-mb-0199","佛光山台北別院","Fo Guang Shan Taipei Branch Monastery",25.050621,121.530659
"tt-mb-0200","佛光山普門寺","Fo Guang Shan Pu Men Temple",25.061805,121.546404
"tt-mb-0201","台北佛教蓮社","Taipei Buddhist Lotus Society",25.052962,121.559533
"tt-mb-0202","大緣精舍","Da Yuan Jing She",25.059953,121.564353
"tt-mb-0203","慈濟松山聯絡處","Ci Ji Song Shan Lian Luo Chu",25.05121,121.563734
"tt-mb-0204","佛菩提講堂","Fo Pu Ti Jiang Tang",25.048025,121.5466
"tt-mb-0205","無極太上玄門聖佛宗千圓光佛學會","Wu Ji Tai Shang Xuan Men Sheng Fo Zong Qian Yuan Guang Buddhist Institute",25.049349,121.567894
"tt-mb-0206","淨宗共修會","Jing Zong Gong Xiu Hui",25.049553,121.573722
"tt-mb-0207","本願山松山念佛會","Ben Yuan Shan Song Shan Chanting Society",25.046853,121.559945
"tt-mb-0208","妙音精舍","Miao Yin Jing She",25.053905,121.561959
"tt-mb-0209","延壽精舍","Yan Shou Jing She",25.051685,121.561906
"tt-mb-0210","萬國道德講堂","Wan Guo Dao De Jiang Tang",25.053948,121.563121
"tt-mb-0211","品慧講堂","Pin Hui Jiang Tang",25.066226,121.544584
"tt-mb-0212","貝瑪禪密佛學中心","Bei Ma Chan Mi Buddhist Center",25.048895,121.554768
"tt-mb-0213","藏海學會","Cang Hai Xue Hui",25.048316,121.553213
"tt-mb-0214","經續法林","Jing Xu Fa Lin",25.048316,121.553213
"tt-mb-0215","中華藏密大手印五支佛學會","Zhong Hua Cang Mi Da Shou Yin Wu Zhi Buddhist Institute",25.051003,121.569635
"tt-mb-0216","聖弟子法脈中心","Sheng Di Zi Fa Mai Zhong Xin",25.053506,121.562559
"tt-mb-0217","諾那華藏精舍台北總舍","Nuo Na Hua Cang Jing She Taipei Zong She",25.05169,121.559411
"tt-mb-0218","福智佛教基金會﹝草創期 ﹞","Fu Zhi Fo Jiao Ji Jin Hui",25.040538,121.525939
"tt-mb-0219","福智佛教基金會﹝民生東路﹞","Fu Zhi Fo Jiao Ji Jin Hui",25.074065,121.60567
"tt-mb-0220","福智佛教基金會","Fu Zhi Fo Jiao Ji Jin Hui",25.051721,121.555195
"tt-mb-0221","台灣佐欽大圓滿佛學會","Taiwan Zuo Qin Da Yuan Man Buddhist Institute",25.050708,121.562661
"tt-mb-0222","法鼓山松山中山共修處","Dharma Drum Mountain Sung Shan Zhong Shan Practice Center",25.054945,121.547529
"tt-mb-0223","法鼓山松山共修處﹝民生東路 ﹞","Dharma Drum Mountain Sung Shan Practice Center",25.058236,121.556543
"tt-mb-0224","法鼓山松山共修處﹝八德路 ﹞","Dharma Drum Mountain Sung Shan Practice Center",25.046725,121.560054
"tt-mb-0225","法鼓山松山辦事處","Dharma Drum Mountain Sung Shan Office",25.058236,121.556543
"tt-mb-0226","詠給菩提學苑","Yong Gei Pu Ti Xue Yuan",25.047926,121.557979
"tt-mb-0227","台北市放生念佛會","Taipei Fang sheng Chanting Society",25.045798,121.553694
"tt-mb-0228","生命電視台北生命學院","Sheng Ming Dian Shi Taipei Sheng Ming Xue Yuan",25.058025,121.562401
"tt-mb-0229","台北淨宗學會","Amitabha Buddhist Society of Taipei",25.052566,121.545535
"tt-mb-0230","台北市宗南學佛會","UTBF Trungram Dharma Center: Taipei",25.053174,121.554287
"tt-mb-0231","中華佛心功德會總會","Zhong hua Buddha Heart World Headquarters",25.051384,121.556576
"tt-mb-0232","靈巖山台北松山念佛會","Ling Yan Shan Taipei Song Shan Chanting Society",25.052577,121.546642
"tt-mb-0233","虛空法林","Xu Kong Fa Lin",25.048513,121.555437
"tt-mb-0234","貝瑪禪密佛學會","Bei Ma Chan Mi Buddhist Institute",25.058972,121.557283
"tt-mb-0235","直貢噶舉竹節佛學會","Zhi Gong Kagyu Zhu Jie Buddhist Institute",25.058323,121.558721
"tt-mb-0236","和平法盛洲","He Ping Fa Cheng Zhou",25.057992,121.554265
"tt-mb-0237","寧瑪巴尼札佛學會","Nyingma Ni zha Buddhist Institute",25.064423,121.546845
"tt-mb-0238","台北市佛教全德廣場","Taipei Buddhist Chuan-der Garden",25.046096,121.557942
"tt-mb-0239","台北市護持大乘法脈基金會","Taipei Hu Chi Da Sheng Fa Mai Ji Jin Hui",25.051636,121.544817
"tt-mb-0240","中台山普賢精舍﹝草創期 ﹞","Chung Tai Shan Pu Xian Meditation Center (Taipei)",25.057202,121.583408
"tt-mb-0241","中台山普賢精舍","Chung Tai Shan Pu Xian Meditation Center (Taipei)",25.059229,121.563822
"tt-mb-0242","台北市藍毗尼佛學會","Lumbini Buddhism Center",25.051204,121.562979
"tt-mb-0243","台北市菩提果學佛會","Taipei Pu Ti Guo Xue Fo Hui",25.059534,121.548171
"tt-mb-0244","台北市密宗薩迦塔爾畢楊澤學會","Taipei Mi Zong Sa Jia Ta Er Bi Yang Ze Xue Hui",25.050282,121.568659
"tt-mb-0245","清涼蘭若","Qing Liang Lan Ruo",25.050139,121.573508
"tt-mb-0246","攝山精舍","She Shan Jing She",25.046414,121.557374
"tt-mb-0247","台北金剛乘學會","Taipei Vajrayana Buddhist Institute",25.051626,121.545593
"tt-mb-0248","藥師寺","Yao Shi Si",25.051644,121.562515
"tt-mb-0249","國際佛學研究中心","International Buddhist Center",25.051264,121.561571
"tt-mb-0250","佛國寺","Fo Guo Si",25.051856,121.556581
"tt-mb-0251","自生遍在佛學中心-台北","Taipei Zi Sheng Bian Zai Buddhist Center",25.059212,121.555219
"tt-mb-0252","台北安祥禪學會","Taipei An Xiang Chan Xue Hui",25.050813,121.558898
"tt-mb-0253","創價學會德旺講堂","Chuang Jia Xue Hui De Wang Jiang Tang",25.049021,121.567345
"tt-mb-0254","生命電視台北東區中心","Sheng Ming Dian Shi Taipei Dong Qu Zhong Xin",25.049525,121.566601
"tt-mb-0255","法鼓山安和分院","Dharma Drum Mountain Anho Branch Monastery",25.039109,121.550288
"tt-mb-0256","慕欽講堂","Mu Qin Jiang Tang",25.027155,121.524397
"tt-mb-0257","中台山普得精舍","Chung Tai Shan Pu De Meditation Center",25.025414,121.540922
"tt-mb-0258","曹洞宗南門佈教所","Cao Dong Zong Nan Men Bu Jiao Suo",25.029207,121.523673
"tt-mb-0259","圓通閣","Yuan Tong Ge",25.029207,121.523673
"tt-mb-0260","台北市圓通學苑","Taipei Yuan Tong Xue Yuan",25.029207,121.523673
"tt-mb-0261","法雲寺","Fa Yun Si",25.034269,121.533524
"tt-mb-0262","九龍蓮社","Jiu Long Lian She",25.035179,121.547796
"tt-mb-0263","觀音禪院","Guan Yin Chan Yuan",25.036932,121.533233
"tt-mb-0264","佛藏山台北文殊院","Fo Cang Shan Taipei Wen Shu Yuan",25.021335,121.53057
"tt-mb-0265","豐川分靈法務所","Feng Chuan Fen Ling Fa Wu Suo",25.039357,121.497822
"tt-mb-0266","寶華寺","Bao Hua Si",25.039357,121.497822
"tt-mb-0267","福州山念佛寺","Fu Zhou Shan Nian Fo Si",25.011898,121.553079
"tt-mb-0268","靈鷲山台北講堂﹝草創期﹞","Ling Jiou Mountain Taipei Dharma Hall",25.033431,121.553193
"tt-mb-0269","靈鷲山台北講堂","Ling Jiou Mountain Taipei Dharma Hall",25.033431,121.553193
"tt-mb-0270","佛天宮","Fo Tian Gong",25.022152,121.552131
"tt-mb-0271","中華佛教居士會","Chinese Buddhism Dharma Upholders Society",25.017974,121.531306
"tt-mb-0272","一心寺","Yi Xin Si",25.032802,121.538348
"tt-mb-0273","慈恩佛會","Ci En Fo Hui",25.024993,121.530254
"tt-mb-0274","玄成堂","Xuan Cheng Tang",25.013208,121.545375
"tt-mb-0275","慈善佛寺","Ci Shan Fo Si",25.029315,121.553693
"tt-mb-0276","玉鳳宮","Yu Feng Gong",25.019618,121.556788
"tt-mb-0277","清水宮","Qing Shui Gong",25.029937,121.543823
"tt-mb-0278","佛教力行學院台北學部","Fo Jiao Li Xing Xue Yuan Taipei Xue Bu",25.036657,121.557373
"tt-mb-0279","白雲禪寺","Bai Yun Chan Si",25.031953,121.552047
"tt-mb-0280","和南別苑","He Nan Bie Yuan",25.022869,121.53648
"tt-mb-0281","中華五眼護盲協會","Zhong Hua Wu Yan Hu Mang Xie Hui",25.030177,121.543913
"tt-mb-0282","珠龍宮","Zhu Long Gong",25.019108,121.557406
"tt-mb-0283","清山寺","Qing Shan Si",25.029013,121.543702
"tt-mb-0284","法藏精舍","Fa Cang Jing She",25.043208,121.54308
"tt-mb-0285","妙音佛堂","Miao Yin Fo Tang",25.035702,121.555898
"tt-mb-0286","台北妙廣文教基金會","Taipei Miao Guang Wen Jiao Ji Jin Hui",25.034156,121.556844
"tt-mb-0287","正法源學佛會","Zheng Fa Yuan Xue Fo Hui",25.036778,121.535975
"tt-mb-0288","中華慧炬佛學會","Zhong Hua Hui Ju Buddhist Institute",25.036364,121.536807
"tt-mb-0289","禪門佛教文化中心","Chan Men Fo Jiao Wen Hua Zhong Xin",25.041262,121.547216
"tt-mb-0290","唯真講堂","Wei Zhen Jiang Tang",25.017989,121.551293
"tt-mb-0291","華藏淨宗學會","Hwadzan Pureland Learning Center",25.033424,121.556216
"tt-mb-0292","聖脈生命協會","Sheng Mai Sheng Ming Xie Hui",25.031519,121.530907
"tt-mb-0293","中華民國菩提願學佛會","Pu ti yuan Buddhist Association (R.O.C.)",25.039739,121.551439
"tt-mb-0294","慈濟台北分會靜思堂","Ci Ji Taipei Fen Hui Jing Si Tang",25.043668,121.538451
"tt-mb-0295","台北市岡波巴金剛乘佛學會","Taipei Gang Po Ba Jin Gang Sheng Buddhist Institute",25.034033,121.546069
"tt-mb-0296","彌勒大佛工程台灣辦事處","Mi Le Da Fo Gong Cheng Taiwan Ban Shi Chu",25.02922,121.549339
"tt-mb-0297","中華民國無量壽佛學會","Amitayu Buddhism Center (R.O.C.)",25.042323,121.54668
"tt-mb-0298","寧瑪巴九乘法輪中心","Nyingma Jiu cheng Fa lun Buddhist Center",25.036497,121.548059
"tt-mb-0299","創古智慧金剛佛學中心","Chuang Gu Zhi Hui Jin Gang Buddhist Center",25.041574,121.555834
"tt-mb-0300","寧瑪巴白玉祥丘達吉林佛學會台北中心","Nyingmapa Palyul Jangchub Darjeling Taipei Center",25.04189,121.539202
"tt-mb-0301","寧瑪派明心精舍","Nyingma Dharmata Meditation Center",25.041695,121.550378
"tt-mb-0302","白玉福德增廣佛學會","Palyul Fu De Zeng Guang Buddhist Institute",25.039969,121.553325
"tt-mb-0303","佛教顯密智慧協會","Fo Jiao Xian Mi Zhi Hui Xie Hui",25.041393,121.54494
"tt-mb-0304","阿彌陀佛協會","A Mi Tuo Fo Xie Hui",25.041996,121.546601
"tt-mb-0305","台北市噶舉佛學會","Taipei Kagyu Buddhist Institute",25.034334,121.554935
"tt-mb-0306","中華佛教直貢噶舉菩曼日光林學會","Zhong Hua Fo Jiao Zhi Gong Kagyu Pu Man Ri Guang Lin Xue Hui",25.033777,121.554834
"tt-mb-0307","台灣哲蚌寺洛色林佛學會","Taiwan Zhe Bang Si Luo Se Lin Buddhist Institute",25.023199,121.528481
"tt-mb-0308","吉祥法輪學會","Ji Xiang Fa Lun Xue Hui",25.029389,121.553202
"tt-mb-0309","巴麥寺佛學會","Ba Mai Si Buddhist Institute",25.028359,121.552857
"tt-mb-0310","台北市薩迦詑巴福樂圓滿善住學佛會","Taipei Sa Jia Tuo Ba Fu Le Yuan Man Shan Zhu Xue Fo Hui",25.031738,121.553948
"tt-mb-0311","淨廬念佛會~樂淨齋","Jing Lu Chanting Society ~ Le Jing Zhai",25.034003,121.524405
"tt-mb-0312","薩迦學院","Sakya College",25.028831,121.544168
"tt-mb-0313","中華民國蓮師事業金剛護法會","Taiwan Ogyen Mahaguru Society (R.O.C.)",25.034636,121.536645
"tt-mb-0314","台灣寧瑪洛札卡秋達瑪謌諦學佛會","Taiwan Nyingma Luo Zha Ka Qiu Da Ma Ge Di Xue Fo Hui",25.020008,121.553257
"tt-mb-0315","地藏學會","Di Cang Xue Hui",25.033171,121.542898
"tt-mb-0316","慧安精舍","Hui An Jing She",25.033887,121.545832
"tt-mb-0317","佛化人生新時代書院","Buddhist Life New Age College",25.017158,121.532162
"tt-mb-0318","弘願蓮社","Hong Yuan Lian She",25.031078,121.5468
"tt-mb-0319","慈明禪寺","Ci Ming Chan Si",25.017911,121.550507
"tt-mb-0320","佛海禪寺","Fo Hai Chan Si",25.024447,121.547385
"tt-mb-0321","彌陀精舍","Mi Tuo Jing She",25.041061,121.536917
"tt-mb-0322","中國佛教文化教育活動中心","Zhong Guo Fo Jiao Wen Hua Jiao Yu Huo Dong Zhong Xin",25.04375,121.544038
"tt-mb-0323","大乘講堂","Da Sheng Jiang Tang",25.043184,121.54403
"tt-mb-0324","菩提園","Pu Ti Yuan",25.04258,121.543574
"tt-mb-0325","達摩禪苑","Da Mo Chan Yuan",25.016943,121.532998
"tt-mb-0326","靜修庵","Jing Xiu An",25.031189,121.544483
"tt-mb-0327","妙華蓮苑","Miao Hua Lian Yuan",25.017668,121.53181
"tt-mb-0328","慧明講堂","Hui Ming Jiang Tang",25.023057,121.525941
"tt-mb-0329","藥師如來止法發揚會","Yao Shi Ru Lai Zhi Fa Fa Yang Hui",25.041257,121.548047
"tt-mb-0330","佛心功德會台北市社區暨志願服務推廣中心分會","Buddha Heart World Headquarters Taipei Community Branch",25.035367,121.555233
"tt-mb-0331","桑耶精舍","Sang Ye Jing She",25.043139,121.544028
"tt-mb-0332","創價學會幸安講堂","Chuang Jia Xue Hui Xing An Jiang Tang",25.04188,121.539087
"tt-mb-0333","地藏王廟","Di Cang Wang Miao",25.011859,121.547677
"tt-mb-0334","安和悟覺精舍","An He Wu Jue Jing She",25.035095,121.548285
"tt-mb-0335","淨嵐學舍","Jing Lan Xue She",25.033485,121.548417
"tt-mb-0336","法鼓山大安共修處","Dharma Drum Mountain Da An Practice Center",25.040746,121.534294
"tt-mb-0337","法鼓山大安聯絡處","Dharma Drum Mountain Da An Liaison Office",25.019426,121.553606
"tt-mb-0338","華藏淨宗弘化基金會","Hua Cang Jing Zong Hong Hua Ji Jin Hui",25.03329,121.556731
"tt-mb-0339","法華寺﹝草創期 ﹞","Fa Hua Si",25.038623,121.505849
"tt-mb-0340","日蓮宗法華寺","Ri Lian Zong Fa Hua Si",25.038623,121.505849
"tt-mb-0341","法華寺","Fa Hua Si",25.038623,121.505849
"tt-mb-0342","艋舺龍山寺","Meng Jia Long Shan Si",25.036961,121.499691
"tt-mb-0343","中台山普眼精舍﹝草創期 ﹞","Chung Tai Shan Pu Yan Meditation Center",25.046676,121.509824
"tt-mb-0344","中台山普眼精舍","Chung Tai Shan Pu Yan Meditation Center",25.045729,121.508789
"tt-mb-0345","艋舺地藏庵","Meng Jia Di Cang An",25.036868,121.500586
"tt-mb-0346","功明精舍","Gong Ming Jing She",25.037049,121.500809
"tt-mb-0347","信心禪寺","Xin Xin Chan Si",25.040895,121.49959
"tt-mb-0348","慈雲佛堂﹝草創期﹞","Ci Yun Fo Tang",25.046424,121.503955
"tt-mb-0349","慈雲佛堂﹝草創期 ﹞","Ci Yun Fo Tang",25.046424,121.503955
"tt-mb-0350","慈雲寺","Ci Yun Si",25.046424,121.503955
"tt-mb-0351","東本願寺","Dong Ben Yuan Si",25.04526,121.506273
"tt-mb-0352","妙覺精舍","Miao Jue Jing She",25.030569,121.495243
"tt-mb-0353","艋舺清水巖祖師廟","Meng Jia Qing Shui Yan Zu Shi Miao",25.040261,121.502099
"tt-mb-0354","西本願寺","Xi Ben Yuan Si",25.039847,121.506689
"tt-mb-0355","高野山台灣別院弘法寺","Gao Ye Shan Taiwan Bie Yuan Hong Fa Si",25.042638,121.506471
"tt-mb-0356","新約龍華佛教聖國山保安堂","Xin Yue Long Hua Fo Jiao Sheng Guo Shan Bao An Tang",25.038904,121.501443
"tt-mb-0357","慈恩禪寺","Ci En Chan Si",25.034214,121.496359
"tt-mb-0358","妙音大道場","Miao Yin Da Dao Chang",25.038904,121.501943
"tt-mb-0359","萬能宮","Wan Neng Gong",25.031683,121.496079
"tt-mb-0360","台北佛教同修會","Taipei Fo Jiao Tong Xiu Hui",25.038023,121.49945
"tt-mb-0361","慈航念佛共修會","Ci Hang Nian Fo Gong Xiu Hui",25.024511,121.492414
"tt-mb-0362","普潤佛堂","Pu Run Fo Tang",25.047598,121.509077
"tt-mb-0363","佛光堂","Fo Guang Tang",25.020011,121.494175
"tt-mb-0364","改化堂","Gai Hua Tang",25.018797,121.495455
"tt-mb-0365","台北市廣照宮","Taipei Guang Zhao Gong",25.023491,121.500389
"tt-mb-0366","真學精舍","Zhen Xue Jing She",25.038836,121.505279
"tt-mb-0367","蓮池寺","Lian Chi Si",25.036784,121.49252
"tt-mb-0368","助順將軍廟","Zhu Shun Jiang Jun Miao",25.045891,121.503336
"tt-mb-0369","法鼓山中正萬華辦事處","Dharma Drum Mountain Zhong Zheng Wanhua Office",25.026284,121.500605
"tt-mb-0370","達摩寺","Da Mo Si",25.021839,121.499777
"tt-mb-0371","慈濟中正萬華聯絡處","Ci Ji Zhong Zheng Wan Hua Lian Luo Chu",25.03158,121.50035
"tt-mb-0372","至玄宮","Zhi Xuan Gong",25.024752,121.501789
"tt-mb-0373","白雲般若講堂","Bai Yun Po Ruo Jiang Tang",25.046146,121.50517
"tt-mb-0374","無極靈隱寺","Wu Ji Ling Yin Si",25.023634,121.494804
"tt-mb-0375","巖清寺","Yan Qing Si",25.021529,121.492325
"tt-mb-0376","蓮宗精舍","Lian Zong Jing She",25.030769,121.495306
"tt-mb-0377","壽光學舍","Shou Guang Xue She",25.02954,121.504329
"tt-mb-0378","九龍菩提行願會","Jiu Long Pu Ti Xing Yuan Hui",25.04049,121.505438
"tt-mb-0379","舊譯講修林佛學研究協會","Jiu Yi Jiang Xiu Lin Fo Xue Yan Jiu Xie Hui",25.024786,121.500529
"tt-mb-0380","寧瑪巴白玉祥丘達吉林佛學會","Taipei Nyingmapa Palyul Jangchub Darjeling Buddhist Institute",25.032352,121.491813
"tt-mb-0381","法輪講堂","Fa Lun Jiang Tang",25.045581,121.508798
"tt-mb-0382","慧光精舍","Hui Guang Jing She",25.045787,121.508587
"tt-mb-0383","慈願行苑","Ci Yuan Xing Yuan",25.038966,121.500749
"tt-mb-0384","三慧學舍","San Hui Xue She",25.037958,121.500419
"tt-mb-0385","台北縣佛教會","Taipei County Buddhist Association",25.048183,121.507609
"tt-mb-0386","觀自在慈友會","Guan Zi Zai Ci You Hui",25.037225,121.504294
"tt-mb-0387","慈善佛堂","Ci Shan Fo Tang",25.040717,121.50567
"tt-mb-0388","蓮德學佛會","Lian De Xue Fo Hui",25.032574,121.489411
"tt-mb-0389","創價學會中興文化會館","Chuang Jia Xue Hui Zhong Xing Wen Hua Hui Guan",25.043634,121.501681
"tt-mb-0390","生命電視萬華中心","Sheng Ming Dian Shi Wan Hua Zhong Xin",25.01943,121.495852
"tt-mb-0391","真光禪寺","Zhen Guang Chan Si",25.031775,121.587029
"tt-mb-0392","中台山普光精舍","Chung Tai Shan Pu Guang Meditation Center (Taipei)",25.028966,121.564898
"tt-mb-0393","中台山普皇精舍","Chung Tai Shan Pu Huang Meditation Center",25.026588,121.555062
"tt-mb-0394","松山寺﹝草創期 ﹞","Sung Shan Temple",25.023954,121.564064
"tt-mb-0395","佛光山松山寺","Fo Guang Shan Sung Shan Temple",25.023954,121.564064
"tt-mb-0396","松山靈隱寺","Song Shan Ling Yin Si",25.025148,121.581381
"tt-mb-0397","湖春寺","Hu Chun Si",25.095271,121.526444
"tt-mb-0398","靈源寺","Ling Yuan Si",25.048887,121.575295
"tt-mb-0399","千佛山十方大法禪寺","Qian Fo Shan Shi Fang Da Fa Chan Si",25.031425,121.589979
"tt-mb-0400","佛光山台北道場","Fo Guang Shan Taipei Vihara",25.048309,121.578821
"tt-mb-0401","石泉巖","Shi Quan Yan",25.012057,121.568817
"tt-mb-0402","永吉福德宮","Yong Ji Fu De Gong",25.042145,121.569956
"tt-mb-0403","觀音覺佛園","Guan Yin Jue Fo Yuan",25.045491,121.570828
"tt-mb-0404","龍壽佛堂","Long Shou Fo Tang",25.044531,121.574106
"tt-mb-0405","華嚴聖因精舍","Hua Yan Sheng Yin Jing She",25.029867,121.561134
"tt-mb-0406","慈皇靈山照源臺","Ci Huang Ling Shan Zhao Yuan Tai",25.023194,121.561943
"tt-mb-0407","玄覺寺","Xuan Jue Si",25.022631,121.561103
"tt-mb-0408","東王寶殿","Dong Wang Bao Dian",25.016348,121.573581
"tt-mb-0409","觀音寺","Guan Yin Si",25.018479,121.571966
"tt-mb-0410","淨蓮念佛會","Jing Lian Chanting Society",25.016664,121.573063
"tt-mb-0411","玉天宮","Yu Tian Gong",25.021295,121.557346
"tt-mb-0412","妙行講堂","Miao Xing Jiang Tang",25.040624,121.578072
"tt-mb-0413","松山青雲寺","Song Shan Qing Yun Si",25.031814,121.579279
"tt-mb-0414","修聖寺","Xiu Sheng Si",25.026205,121.578977
"tt-mb-0415","紫竹精舍","Zi Zhu Jing She",25.026785,121.581532
"tt-mb-0416","修德庵","Xiu De An",25.027605,121.581205
"tt-mb-0417","西方三聖寺","Xi Fang San Sheng Si",25.026122,121.582355
"tt-mb-0418","地藏庵","Di Cang An",25.026122,121.582615
"tt-mb-0419","福樂寺","Fu Le Si",25.026122,121.582355
"tt-mb-0420","普陀山金剛禪寺","Pu Tuo Shan Jin Gang Chan Si",25.026172,121.582355
"tt-mb-0421","寒山寺","Han Shan Si",25.026585,121.581532
"tt-mb-0422","普陀山慈航寺","Pu Tuo Shan Ci Hang Si",25.025817,121.578033
"tt-mb-0423","賢徧林佛學會","Xian Bian Lin Buddhist Institute",25.047846,121.577194
"tt-mb-0424","無極聖寶殿","Wu Ji Sheng Bao Dian",25.040312,121.574166
"tt-mb-0425","拇指山大悲佛堂","Mu Zhi Shan Da Bei Fo Tang",25.020896,121.579902
"tt-mb-0426","忠義宮","Zhong Yi Gong",25.048505,121.569524
"tt-mb-0427","天月宮","Tian Yue Gong",25.032273,121.559296
"tt-mb-0428","中華密嚴宗佛教協會千手觀音寺","Zhong Hua Mi Yan Zong Fo Jiao Xie Hui Qian Shou Guan Yin Si",25.030951,121.559297
"tt-mb-0429","寧瑪巴噶陀顯密繁榮洲佛學會","Nyingma Kathok Xian mi Fan rong zhou Buddhist Institute",25.029251,121.557453
"tt-mb-0430","六張犁慈聖宮","Liu Zhang Li Ci Sheng Gong",25.023006,121.557349
"tt-mb-0431","順天宮","Shun Tian Gong",25.023669,121.556845
"tt-mb-0432","嚴寬祜文教基金會","Yan Kuan Hu Wen Jiao Ji Jin Hui",25.040574,121.562441
"tt-mb-0433","佛教菩提願學佛會","Fo Jiao Pu Ti Yuan Xue Fo Hui",25.040163,121.562149
"tt-mb-0434","松山慧德寺","Song Shan Hui De Si",25.036153,121.583537
"tt-mb-0435","壽天宮","Shou Tian Gong",25.031892,121.586797
"tt-mb-0436","明山寺","Ming Shan Si",25.030144,121.586348
"tt-mb-0437","松山九五茅蓬","Song Shan Jiu Wu Mao Peng",25.028975,121.58446
"tt-mb-0438","本願禪寺","Ben Yuan Chan Si",25.032219,121.588535
"tt-mb-0439","光復南路白玉中心","Guang Fu S. Rd Palyul Center",25.03538,121.557782
"tt-mb-0440","中華菩提協會","Zhong Hua Pu Ti Xie Hui",25.041097,121.578885
"tt-mb-0441","上密院台北佛學中心","Shang Mi Yuan Taipei Buddhist Center",25.034116,121.575968
"tt-mb-0442","達賴喇嘛西藏宗教基金會","Tibet Religious Foundation of His Holiness the Dalai Lama",25.024831,121.553303
"tt-mb-0443","向覺學會","Xiang Jue Xue Hui",25.040996,121.585735
"tt-mb-0444","卓千佛學會","Zhuo Qian Buddhist Institute",25.024825,121.570542
"tt-mb-0445","大佛精舍","Da Fo Jing She",25.037698,121.577139
"tt-mb-0446","松山菩提蓮社","Song Shan Pu Ti Lian She",25.043388,121.57665
"tt-mb-0447","欣德園佛學圖書館","Xin De Yuan Buddhism library",25.025998,121.554658
"tt-mb-0448","中華民國中台禪學會","Zhong Hua Min Guo Zhong Tai Chan Xue Hui",25.023998,121.568924
"tt-mb-0449","淨土宗台北念佛會","Jing Tu Zong Taipei Chanting Society",25.027409,121.570671
"tt-mb-0450","淨土宗法物流通處","Jing Tu Zong Fa Wu Liu Tong Chu",25.027212,121.569562
"tt-mb-0451","創價學會松德講堂","Chuang Jia Xue Hui Song De Jiang Tang",25.037858,121.574625
"tt-mb-0452","圓覺精舍","Yuan Jue Jing She",25.045787,121.571929
"tt-mb-0453","法鼓山松山南港禪修會","Dharma Drum Mountain Sung Shan Nangang Meditation Group",25.045218,121.576497
"tt-mb-0454","法鼓山信義共修處","Dharma Drum Mountain Xinyi Practice Center",25.045218,121.576497
"tt-mb-0455","地藏寺","Di Cang Si",25.122459,121.558372
"tt-mb-0456","東方寺","Dong Fang Si",25.122459,121.558372
"tt-mb-0457","報恩堂","Bao En Tang",25.085049,121.526083
"tt-mb-0458","報恩寺","Bao En Si",25.085049,121.526083
"tt-mb-0459","臨濟宗士林佈教所","Lin Ji Zong Shi Lin Bu Jiao Suo",25.083325,121.526223
"tt-mb-0460","昭明寺","Zhao Ming Si",25.083325,121.526223
"tt-mb-0461","中台山普行精舍﹝草創期 ﹞","Chung Tai Shan Pu Xing Meditation Center",25.118131,121.532601
"tt-mb-0462","中台山普行精舍","Chung Tai Shan Pu Xing Meditation Center",25.120409,121.526384
"tt-mb-0463","吉祥寺","Ji Xiang Si",25.123381,121.541308
"tt-mb-0464","中台山普榮精舍","Chung Tai Shan Pu Rong Meditation Center",25.109495,121.533384
"tt-mb-0465","淨光寺﹝草創期﹞","Jing Guang Si",25.110884,121.528782
"tt-mb-0466","淨光寺","Jing Guang Si",25.127782,121.53715
"tt-mb-0467","淨光寺-講堂","Jing Guang Si Jiang Tang",25.110884,121.528782
"tt-mb-0468","南海普陀山慧濟寺分院﹝草創期﹞","Nan Hai Pu Tuo Shan Hui Ji Si Fen Yuan",25.126796,121.536378
"tt-mb-0469","南海普陀山慧濟寺","Nan Hai Pu Tuo Shan Hui Ji Si",25.126796,121.536378
"tt-mb-0470","妙法寺﹝草創期 ﹞","Miao Fa Si",25.064283,121.501412
"tt-mb-0471","妙法寺﹝草創期 ﹞","Miao Fa Si",25.063243,121.503049
"tt-mb-0472","妙法寺","Miao Fa Si",25.12293,121.586717
"tt-mb-0473","鼓山湧泉寺","Gu Shan Yong Quan Si",25.098851,121.555384
"tt-mb-0474","永明寺","Yong Ming Si",25.107328,121.547461
"tt-mb-0475","芝山巖﹝草創期﹞","Zhi Shan Yan",25.102966,121.530632
"tt-mb-0476","惠濟宮﹝草創期﹞","Hui Ji Gong",25.102966,121.530632
"tt-mb-0477","芝山巖惠濟宮","Zhi Shan Yan Hui Ji Gong",25.102966,121.530632
"tt-mb-0478","台北祖菩道場","Taipei Zu Pu Dao Chang",25.086108,121.521807
"tt-mb-0479","台北地藏禪寺","Taipei Di Cang Chan Si",25.099687,121.490656
"tt-mb-0480","保安佛堂佈教所","Bao An Fo Tang Bu Jiao Suo",25.113855,121.527818
"tt-mb-0481","蓮池禪寺","Lian Chi Chan Si",25.098879,121.555416
"tt-mb-0482","啟明佛寺","Qi Ming Fo Si",25.091003,121.524682
"tt-mb-0483","普願精舍","Pu Yuan Jing She",25.084524,121.511999
"tt-mb-0484","金山分院","Jin Shan Fen Yuan",25.128543,121.533103
"tt-mb-0485","妙光寺","Miao Guang Si",25.095055,121.539664
"tt-mb-0486","本願山天母念佛會","Ben Yuan Shan Tian Mu Chanting Society",25.109434,121.528809
"tt-mb-0487","法鼓山慈弘精舍","Dharma Drum Mountain Ci Hong Dharma Center",25.079698,121.510915
"tt-mb-0488","佛光山士林服務處","Fo Guang Shan Shih Lin Service Bureau",25.098534,121.532222
"tt-mb-0489","佛光山士林禪淨中心","Fo Guang Shan Shih Lin Temple",25.098534,121.532222
"tt-mb-0490","廣明寺","Guang Ming Si",25.089651,121.507835
"tt-mb-0491","觀音普化門丹華堂行道院","Guan Yin Pu Hua Men Dan Hua Tang Xing Dao Yuan",25.113756,121.540846
"tt-mb-0492","法鼓山天母共修處","Dharma Drum Mountain Tianmu Practice Center",25.107709,121.525813
"tt-mb-0493","法鼓山石牌聯絡處","Dharma Drum Mountain Shipai Liaison Office",25.10314,121.521083
"tt-mb-0494","法鼓山石牌辦事處","Dharma Drum Mountain Shipai Office",25.10314,121.521083
"tt-mb-0495","本願山士林念佛會","Ben Yuan Shan Shi Lin Chanting Society",25.089561,121.516136
"tt-mb-0496","士林千手觀音廟","Shi Lin Qian Shou Guan Yin Miao",25.08859,121.525925
"tt-mb-0497","慈願精舍","Ci Yuan Jing She",25.100989,121.524399
"tt-mb-0498","九品精舍","Jiu Pin Jing She",25.102247,121.527121
"tt-mb-0499","慈悟寺","Ci Wu Si",25.133595,121.532608
"tt-mb-0500","白毫精舍","Bai Hao Jing She",25.105979,121.525134
"tt-mb-0501","慈雲寺","Ci Yun Si",25.124229,121.531947
"tt-mb-0502","弘化世界藝術劇團","Hong Hua Shi Jie Yi Shu Ju Tuan",25.103213,121.518846
"tt-mb-0503","鶴鳴精舍","He Ming Jing She",25.12998,121.571951
"tt-mb-0504","平等山法輪禪寺","Ping Deng Shan Fa Lun Chan Si",25.138981,121.577936
"tt-mb-0505","龍泉寺","Long Quan Si",25.124873,121.551248
"tt-mb-0506","妙德蘭若","Miao De Lan Ruo",25.105723,121.542283
"tt-mb-0507","天岳山雲陽寺","Tian Yue Shan Yun Yang Si",25.11825,121.587071
"tt-mb-0508","三聖殿","San Sheng Dian",25.124206,121.577823
"tt-mb-0509","慈願寺","Ci Yuan Si",25.098937,121.540402
"tt-mb-0510","法雨山普宜苑","Fa Yu Shan Pu Yi Yuan",25.121184,121.577347
"tt-mb-0511","禪雲精舍","Chan Yun Jing She",25.124541,121.593629
"tt-mb-0512","中華藏密噶瑪巴協會","Zhong Hua Cang Mi Ga Ma Ba Xie Hui",25.10952,121.52389
"tt-mb-0513","大法壇","Da Fa Tan",25.079164,121.510703
"tt-mb-0514","三元宮","San Yuan Gong",25.084896,121.510757
"tt-mb-0515","葫蘆寺","Hu Lu Si",25.085164,121.508411
"tt-mb-0516","監王宮","Jian Wang Gong",25.08919,121.506495
"tt-mb-0517","三寶壇","San Bao Tan",25.089901,121.505941
"tt-mb-0518","慈安寺","Ci An Si",25.105231,121.483061
"tt-mb-0519","法鼓山後港劍潭共修處﹝通河東街 ﹞","Dharma Drum Mountain Hougang Jian Tan Practice Center",25.081817,121.517542
"tt-mb-0520","法鼓山後港劍潭共修處﹝華齡街 ﹞","Dharma Drum Mountain Hougang Jian Tan Practice Center",25.086972,121.519616
"tt-mb-0521","法鼓山劍潭共修處","Dharma Drum Mountain Jian Tan Practice Center",25.0827,121.520711
"tt-mb-0522","飛龍寺","Fei Long Si",25.132797,121.536707
"tt-mb-0523","六如殿","Liu Ru Dian",25.120998,121.54355
"tt-mb-0524","九蓮宮","Jiu Lian Gong",25.088419,121.506432
"tt-mb-0525","南海法門寺","Nan Hai Fa Men Si",25.092538,121.506441
"tt-mb-0526","慈善堂","Ci Shan Tang",25.089184,121.509697
"tt-mb-0527","雨農聞思班","Yu Nong Wen Si Ban",25.097855,121.532147
"tt-mb-0528","妙善堂","Miao Shan Tang",25.10431,121.529057
"tt-mb-0529","頻陀學苑","Pin Tuo Xue Yuan",25.084479,121.512021
"tt-mb-0530","淨因寺","Jing Yin Si",25.09986,121.556439
"tt-mb-0531","圓明寺","Yuan Ming Si",25.099072,121.556832
"tt-mb-0532","總持寺","Zong Chi Si",25.08718,121.504826
"tt-mb-0533","大方廣佛學講修學會","Da Fang Guang Fo Xue Jiang Xiu Xue Hui",25.107388,121.524849
"tt-mb-0534","中華佛教吽字持明成就正法會","Zhong Hua Fo Jiao Hong Zi Chi Ming Cheng Jiu Zheng Fa Hui",25.118988,121.525853
"tt-mb-0535","中華密宗耶旺傑仟佛學會","Zhong Hua Mi Zong Ye Wang Jie Qian Buddhist Institute",25.118015,121.536558
"tt-mb-0536","蓮華念佛會","Lian Hua Chanting Society",25.086768,121.517681
"tt-mb-0537","藏密薩迦大智佛學研究中心","Cang Mi Sa Jia Da Zhi Fo Xue Yan Jiu Zhong Xin",25.089999,121.519213
"tt-mb-0538","噶寧菩提法園佛學會","Ga Ning Pu Ti Fa Yuan Buddhist Institute",25.090754,121.515263
"tt-mb-0539","明心精舍閉關中心","Dharmata Meditation Center Retreat Center",25.138985,121.548768
"tt-mb-0540","普賢蓮社","Pu Xian Lian She",25.089137,121.51739
"tt-mb-0541","慈生佛堂","Ci Sheng Fo Tang",25.124452,121.535295
"tt-mb-0542","光泉法輪中心","Guang Quan Buddhist Center",25.118548,121.537045
"tt-mb-0543","西藏佛學會","Xi Cang Buddhist Institute",25.118215,121.533127
"tt-mb-0544","真澄寺","Zhen Cheng Si",25.102277,121.554777
"tt-mb-0545","萬佛朝山共修會","Wan Fo Chao Shan Gong Xiu Hui",25.085234,121.511016
"tt-mb-0546","如來禪蓬","Ru Lai Chan Peng",25.115607,121.56909
"tt-mb-0547","西藏密宗佛學服務中心","Xi Cang Mi Zong Fo Xue Fu Wu Zhong Xin",25.082247,121.511844
"tt-mb-0548","阿含精舍","A Han Jing She",25.105203,121.52624
"tt-mb-0549","松柏精舍","Song Bo Jing She",25.086097,121.511347
"tt-mb-0550","寧瑪巴鐵丘吉林大乘法苑佛學會","Nyingma Tie qiu Ji lin Da cheng Fa yuan Buddhist Institute",25.082611,121.520846
"tt-mb-0551","創價學會天母講堂","Chuang Jia Xue Hui Tian Mu Jiang Tang",25.114207,121.529855
"tt-mb-0552","法鼓山石牌天母共修處","Dharma Drum Mountain Shipai Tianmu Practice Center",25.117506,121.507066
"tt-mb-0553","法鼓山大同士林聯絡處","Dharma Drum Mountain Da Tong Shih Lin Liaison Office",25.082148,121.522229
"tt-mb-0554","法鼓山士林共修處","Dharma Drum Mountain Shih Lin Practice Center",25.094352,121.524107
"tt-mb-0555","法鼓山士林辦事處","Dharma Drum Mountain Shih Lin Office",25.094055,121.522898
"tt-mb-0556","法鼓山社子共修處","Dharma Drum Mountain She Zi Practice Center",25.091238,121.507138
"tt-mb-0557","法音精舍","Fa Yin Jing She",25.103587,121.526895
"tt-mb-0558","台北地藏淨宗學會﹝代收法寶處 ﹞","Taipei Di Cang Pureland Learning Center",25.089916,121.529893
"tt-mb-0559","法鼓山中華佛教文化館","Dharma Drum Mountain Chung-Hwa Institute of Buddhist Culture",25.136431,121.510307
"tt-mb-0560","法鼓山農禪寺","Dharma Drum Mountain Nung Chan Monastery",25.122857,121.495941
"tt-mb-0561","法鼓山新農禪寺","Dharma Drum Mountain New Nung Chan Monastery",25.128466,121.507056
"tt-mb-0562","法鼓山雲來寺","Dharma Drum Mountain Yun Lai Monastery",25.128466,121.507056
"tt-mb-0563","彌陀寺","Mi Tuo Si",25.144522,121.521202
"tt-mb-0564","曹洞宗佈教所","Cao Dong Zong Bu Jiao Suo",25.055476,121.512121
"tt-mb-0565","清泉寺","Qing Quan Si",25.130497,121.507442
"tt-mb-0566","中和禪寺","Zhong He Chan Si",25.130497,121.507442
"tt-mb-0567","大山寺","Da Shan Si",25.147698,121.518874
"tt-mb-0568","淨蓮院","Jing Lian Yuan",25.147698,121.518874
"tt-mb-0569","法雨寺","Fa Yu Si",25.147698,121.518874
"tt-mb-0570","觀音禪院","Guan Yin Chan Yuan",25.126956,121.513348
"tt-mb-0571","飛龍寺","Fei Long Si",25.14542,121.496397
"tt-mb-0572","慈航寺﹝草創期 ﹞","Ci Hang Si",25.14542,121.496397
"tt-mb-0573","慈航寺","Ci Hang Si",25.14542,121.496397
"tt-mb-0574","靈泉山普濟寺","Ling Quan Shan Pu Ji Si",25.13595,121.511176
"tt-mb-0575","善光寺","Shan Guang Si",25.135766,121.518789
"tt-mb-0576","大慈寺","Da Ci Si",25.149669,121.516004
"tt-mb-0577","慈善堂","Ci Shan Tang",25.147018,121.503558
"tt-mb-0578","安國寺﹝草創期 ﹞","An Kuo Temple",25.147018,121.503558
"tt-mb-0579","佛光山安國寺","Fo Guang Shan An Kuo Temple",25.147018,121.503558
"tt-mb-0580","新北投曹洞宗佈教所","Xin Bei Tou Cao Dong Zong Bu Jiao Suo",25.139389,121.513477
"tt-mb-0581","法藏寺","Fa Cang Si",25.139797,121.513242
"tt-mb-0582","中台山普印精舍﹝草創期 ﹞","Chung Tai Shan Pu Yin Meditation Center (Taipei City)",25.114109,121.512833
"tt-mb-0583","中台山普印精舍","Chung Tai Shan Pu Yin Meditation Center (Taipei City)",25.114109,121.512833
"tt-mb-0584","慈濟關渡志業園區","Ci Ji Guan Du Zhi Ye Yuan Qu",25.12321,121.469955
"tt-mb-0585","靈法寺","Ling Fa Si",25.142999,121.503987
"tt-mb-0586","不動明王寺石窟","Bu Dong Ming Wang Si Shi Ku",25.138003,121.517071
"tt-mb-0587","行天堂","Xing Tian Tang",25.073063,121.511902
"tt-mb-0588","關帝廟行天宮","Guan Di Miao Xing Tian Gong",25.062513,121.525203
"tt-mb-0589","台北行天宮北投分宮","Taipei Xing Tian Gong Bei Tou Fen Gong",25.136951,121.477608
"tt-mb-0590","明德淨宗學會","Ming De Pureland Learning Center",25.109525,121.519804
"tt-mb-0591","明解宮","Ming Jie Gong",25.133095,121.498886
"tt-mb-0592","佛恩寺","Fo En Si",25.137147,121.510215
"tt-mb-0593","白聖禪寺","Bai Sheng Chan Si",25.136252,121.498033
"tt-mb-0594","聖雲宮","Sheng Yun Gong",25.10896,121.514097
"tt-mb-0595","日本高野山無量光院台灣別院","Ri Ben Gao Ye Shan Wu Liang Guang Yuan Taiwan Bie Yuan",25.113437,121.511221
"tt-mb-0596","慈濟人文志業中心","Ci Ji Ren Wen Zhi Ye Zhong Xin",25.123535,121.471793
"tt-mb-0597","聖賢禪寺","Sheng Xian Chan Si",25.119064,121.506556
"tt-mb-0598","法音精舍","Fa Yin Jing She",25.108255,121.518406
"tt-mb-0599","法鼓山石牌共修處","Dharma Drum Mountain Shipai Practice Center",25.124152,121.527911
"tt-mb-0600","法鼓山同德共修處","Dharma Drum Mountain Tong De Practice Center",25.124152,121.527911
"tt-mb-0601","湖慈南海寺","Hu Ci Nan Hai Si",25.181238,121.562744
"tt-mb-0602","光泉寺","Guang Quan Si",25.176738,121.533828
"tt-mb-0603","石牌太子會","Shi Pai Tai Zi Hui",25.111451,121.512323
"tt-mb-0604","聖賢堂","Sheng Xian Tang",25.128541,121.52688
"tt-mb-0605","十方菩提精舍","Shi Fang Pu Ti Jing She",25.14283,121.495852
"tt-mb-0606","正覺禪寺","Zheng Jue Chan Si",25.151008,121.490729
"tt-mb-0607","頂湖土地公廟","Ding Hu Tu Di Gong Miao",25.156076,121.52986
"tt-mb-0608","北投至妙寺","Bei Tou Zhi Miao Si",25.148539,121.530612
"tt-mb-0609","妙音精舍","Miao Yin Jing She",25.137571,121.517809
"tt-mb-0610","西宏寺","Xi Hong Si",25.137176,121.512586
"tt-mb-0611","鐘鼓峒","Zhong Gu Tong",25.137176,121.512586
"tt-mb-0612","普庵精舍","Pu An Jing She",25.137176,121.513186
"tt-mb-0613","福慧禪寺","Fu Hui Chan Si",25.137176,121.512676
"tt-mb-0614","龍雲寺","Long Yun Si",25.13699,121.51241
"tt-mb-0615","天竺寺","Tian Zhu Si",25.138786,121.517281
"tt-mb-0616","曼陀寺","Man Tuo Si",25.138123,121.517612
"tt-mb-0617","曹洞寺","Cao Dong Si",25.138486,121.515945
"tt-mb-0618","北投玉佛寺","Bei Tou Yu Fo Si",25.137798,121.518281
"tt-mb-0619","千佛堂","Qian Fo Tang",25.141668,121.51365
"tt-mb-0620","妙行宮","Miao Xing Gong",25.11581,121.518862
"tt-mb-0621","觀音佛堂","Guan Yin Fo Tang",25.139316,121.503468
"tt-mb-0622","集賢堂","Ji Xian Tang",25.147801,121.533162
"tt-mb-0623","梵笙佛堂","Fan Sheng Fo Tang",25.125152,121.501731
"tt-mb-0624","照明淨寺","Zhao Ming Jing Si",25.131546,121.513937
"tt-mb-0625","普照堂","Pu Zhao Tang",25.127374,121.502251
"tt-mb-0626","三公堂","San Gong Tang",25.115338,121.508372
"tt-mb-0627","玄妙寺","Xuan Miao Si",25.141393,121.503717
"tt-mb-0628","蓮居山淨華蓮苑","Lian Ju Shan Jing Hua Lian Yuan",25.160282,121.500904
"tt-mb-0629","陽明禪寺","Yang Ming Chan Si",25.154525,121.540482
"tt-mb-0630","佛樺靜舍","Fo Hua Jing She",25.147789,121.537771
"tt-mb-0631","菩提伽耶內覺禪林","Pu Ti Qie Ye Nei Jue Chan Lin",25.150517,121.519545
"tt-mb-0632","大願寺","Da Yuan Si",25.135696,121.509603
"tt-mb-0633","佛林寺","Fo Lin Si",25.139389,121.513675
"tt-mb-0634","法鼓山北投共修處﹝大興街 ﹞","Dharma Drum Mountain Beitou Practice Center",25.129232,121.4985
"tt-mb-0635","法鼓山北投共修處﹝大業路 ﹞","Dharma Drum Mountain Beitou Practice Center",25.127937,121.499457
"tt-mb-0636","法鼓山北投共修處﹝清江路 ﹞","Dharma Drum Mountain Beitou Practice Center",25.13163,121.502501
"tt-mb-0637","法鼓山北投辦事處","Dharma Drum Mountain Beitou Office",25.13485,121.505029
"tt-mb-0638","靈泉寺","Ling Quan Si",25.141157,121.514932
"tt-mb-0639","法眼寺","Fa Yan Si",25.142991,121.500274
"tt-mb-0640","正印佛堂","Zheng Yin Fo Tang",25.128624,121.500747
"tt-mb-0641","心華菩提精舍","Xin Hua Pu Ti Jing She",25.141215,121.499632
"tt-mb-0642","佛日講堂","Fo Ri Jiang Tang",25.125242,121.500126
"tt-mb-0643","東山龍山寺護法會","Dong Shan Long Shan Si Hu Fa Hui",25.114232,121.510508
"tt-mb-0644","藥師法輪中心","Yao Shi Buddhist Center",25.122859,121.521689
"tt-mb-0645","陽明精舍","Yang Ming Jing She",25.116232,121.516089
"tt-mb-0646","北投佛教居士林","Bei Tou Fo Jiao Ju Shi Lin",25.135087,121.502311
"tt-mb-0647","佛世界講堂","Fo Shi Jie Jiang Tang",25.118691,121.50735
"tt-mb-0648","佛乘宗台北大自在禪林","Fo Sheng Zong Taipei Da Zi Zai Chan Lin",25.106867,121.517136
"tt-mb-0649","念恩精舍","Nian En Jing She",25.108273,121.518388
"tt-mb-0650","普濟精舍","Pu Ji Jing She",25.141377,121.510971
"tt-mb-0651","佛教蓮池海會懷德道場","Fo Jiao Lian Chi Hai Hui Huai De Dao Chang",25.108895,121.516524
"tt-mb-0652","淨覺學佛園","Jing Jue Xue Fo Yuan",25.114484,121.523597
"tt-mb-0653","卍禪學蓮社","Wan Chan Xue Lian She",25.149241,121.50277
"tt-mb-0654","聖淨蓮社","Sheng Jing Lian She",25.118101,121.515524
"tt-mb-0655","覺光寺","Jue Guang Si",25.143228,121.486872
"tt-mb-0656","台灣禪宗佛教會","Taiwan Zen Buddhist Association",25.135376,121.50467
"tt-mb-0657","生命電視北投中心","Sheng Ming Dian Shi Bei Tou Zhong Xin",25.136101,121.510765
"tt-mb-0658","生命電視石牌流通處","Sheng Ming Dian Shi Shi Pai Liu Tong Chu",25.115005,121.515805
"tt-mb-0659","白雲精舍","Bai Yun Jing She",25.15178,121.491448
"tt-mb-0660","妙音菩提寺","Miao Yin Pu Ti Si",25.088001,121.572873
"tt-mb-0661","金龍禪寺","Jin Long Chan Si",25.091744,121.586422
"tt-mb-0662","圓覺寺","Yuan Jue Si",25.097598,121.590939
"tt-mb-0663","中台山普雲精舍","Chung Tai Shan Pu Yun Meditation Center",25.084238,121.593096
"tt-mb-0664","佛光山佛寶寺","Fo Guang Shan Fo Pao Temple",25.066634,121.588483
"tt-mb-0665","佛光山內湖禪淨中心","Fo Guang Shan Nei Hu Temple",25.066634,121.588483
"tt-mb-0666","佛光蓮山寺","Fo Guang Lian Shan Si",25.082299,121.568236
"tt-mb-0667","觀音巖紫竹林","Guan Yin Yan Zi Zhu Lin",25.087044,121.557479
"tt-mb-0668","如來精舍","Ru Lai Jing She",25.078969,121.586679
"tt-mb-0669","紫雲精舍","Zi Yun Jing She",25.07614,121.581677
"tt-mb-0670","法鼓山內湖大直共修處","Dharma Drum Mountain Nei Hu Da zhi Practice Center",25.088152,121.591304
"tt-mb-0671","法鼓山內湖東湖共修處","Dharma Drum Mountain Nei Hu Dong Hu Practice Center",25.088152,121.591304
"tt-mb-0672","法鼓山內湖共修處","Dharma Drum Mountain Nei Hu Practice Center",25.088152,121.591304
"tt-mb-0673","法鼓山內湖辦事處","Dharma Drum Mountain Nei Hu Office",25.069787,121.592501
"tt-mb-0674","中華佛教直貢噶舉協會","Chinese Buddhism Drikung Kagyu Center",25.067831,121.587668
"tt-mb-0675","尊勝寺","Zun Sheng Si",25.073676,121.587174
"tt-mb-0676","妙音共修會","Miao Yin Gong Xiu Hui",25.08481,121.597897
"tt-mb-0677","寧瑪巴白玉龍寧九乘佛學會","Nyingmapa Palyul Long ning Jiu cheng Buddhist Institute",25.079326,121.589879
"tt-mb-0678","薩迦諾爾旺遍德林佛學會","Sa Jia Nuo Er Wang Bian De Lin Buddhist Institute",25.074022,121.60604
"tt-mb-0679","菩提文教基金會","Pu Ti Wen Jiao Ji Jin Hui",25.08266,121.59542
"tt-mb-0680","慈明講堂","Ci Ming Jiang Tang",25.088157,121.587153
"tt-mb-0681","觀音閣","Guan Yin Ge",25.078452,121.598273
"tt-mb-0682","觀聖宮","Guan Sheng Gong",25.071445,121.612198
"tt-mb-0683","福德宮","Fu De Gong",25.073214,121.611067
"tt-mb-0684","竹蓮寺","Zhu Lian Si",25.073243,121.612962
"tt-mb-0685","觀佛門","Guan Fo Men",25.070606,121.619484
"tt-mb-0686","人天宮","Ren Tian Gong",25.072883,121.618011
"tt-mb-0687","週美佛堂","Zhou Mei Fo Tang",25.054628,121.578258
"tt-mb-0688","琉璃園吉祥寺","Liu Li Yuan Ji Xiang Si",25.103484,121.588761
"tt-mb-0689","恆光禪寺","Heng Guang Chan Si",25.106188,121.589158
"tt-mb-0690","萬佛山寺","Wan Fo Shan Si",25.098667,121.587281
"tt-mb-0691","石頭公廟","Shi Tou Gong Miao",25.060668,121.593902
"tt-mb-0692","竹月寺","Zhu Yue Si",25.08966,121.571649
"tt-mb-0693","九品蓮佛學視聽圖書館","Jiu Pin Lian Fo Xue Audio-visual library",25.057445,121.583477
"tt-mb-0694","慈濟內湖聯絡處","Ci Ji Nei Hu Lian Luo Chu",25.08343,121.605284
"tt-mb-0695","佛光堂","Fo Guang Tang",25.085902,121.591737
"tt-mb-0696","淨圓同修會","Jing Yuan Tong Xiu Hui",25.075834,121.578667
"tt-mb-0697","台北福慧共修會","Taipei Fu Hui Gong Xiu Hui",25.079676,121.578219
"tt-mb-0698","淨圓佛教圖書中心","Jing Yuan Fo Jiao Tu Shu Zhong Xin",25.087894,121.587048
"tt-mb-0699","福智東湖教室","Fu Zhi Dong Hu Jiao Shi",25.071665,121.616115
"tt-mb-0700","創價學會瑞光文化會館","Chuang Jia Xue Hui Rui Guang Wen Hua Hui Guan",25.069842,121.581944
"tt-mb-0701","古月禪寺","Gu Yue Chan Si",25.085241,121.559125
"tt-mb-0702","法鼓山東湖汐止共修處","Dharma Drum Mountain Dong Hu Xizhi Practice Center",25.074602,121.6166093
"tt-mb-0703","法鼓山內湖大直聯絡處","Dharma Drum Mountain Nei Hu Da zhi Liaison Office",25.087395,121.562031
"tt-mb-0704","中台山普覺精舍","Chung Tai Shan Pu Jue Meditation Center",25.051823,121.582421
"tt-mb-0705","中台山普惠精舍","Chung Tai Shan Pu Hui Meditation Center",25.0494,121.59172
"tt-mb-0706","金山寺","Jin Shan Si",25.051002,121.613969
"tt-mb-0707","美國法界佛教總會駐華辦事處","Dharma Realm Buddhist Books Distribution society",25.04816,121.584648
"tt-mb-0708","湧蓮禪寺","Yong Lian Chan Si",25.050612,121.607372
"tt-mb-0709","碧天宮","Bi Tian Gong",25.052773,121.59268
"tt-mb-0710","佛明精舍","Fo Ming Jing She",25.052447,121.592773
"tt-mb-0711","玉成佛堂","Yu Cheng Fo Tang",25.054364,121.59215
"tt-mb-0712","南港淨宗學佛社","Nan Gang Jing Zong Xue Fo She",25.052059,121.581235
"tt-mb-0713","南港悟覺精舍","Nan Gang Wu Jue Jing She",25.052069,121.616534
"tt-mb-0714","西方精舍","Xi Fang Jing She",25.019448,121.594464
"tt-mb-0715","佛生堂","Fo Sheng Tang",25.029686,121.643643
"tt-mb-0716","正信佛堂","Zheng Xin Fo Tang",25.052664,121.616049
"tt-mb-0717","宏修佛社","Hong Xiu Fo She",25.03913,121.58899
"tt-mb-0718","慧林學舍","Hui Lin Xue She",25.045771,121.582624
"tt-mb-0719","佛法禪寺","Fo Fa Chan Si",25.050737,121.593684
"tt-mb-0720","普眾講堂","Pu Zhong Jiang Tang",25.051549,121.593895
"tt-mb-0721","圓濟寺","Yuan Ji Si",25.044629,121.593409
"tt-mb-0722","梵音講堂","Fan Yin Jiang Tang",25.037358,121.61756
"tt-mb-0723","每日學佛會","Mei Ri Xue Fo Hui",25.048013,121.615307
"tt-mb-0724","明佛寺","Ming Fo Si",25.038626,121.617622
"tt-mb-0725","明心禪寺","Ming Xin Chan Si",25.030892,121.609079
"tt-mb-0726","護國九天宮","Hu Guo Jiu Tian Gong",25.027653,121.633115
"tt-mb-0727","中台山普照精舍","Chung Tai Shan Pu Zhao Meditation Center",25.003833,121.541635
"tt-mb-0728","景美集應廟﹝草創期 ﹞","Jing Mei Ji Ying Miao",24.991498,121.541903
"tt-mb-0729","景美集應廟","Jing Mei Ji Ying Miao",24.991498,121.541903
"tt-mb-0730","南天台弘法院","Nan Tian Tai Hong Fa Yuan",25.002165,121.538207
"tt-mb-0731","真修寺","Zhen Xiu Si",24.990612,121.546132
"tt-mb-0732","千佛山白雲講堂","Qian Fo Shan Bai Yun Jiang Tang",25.049734,121.580405
"tt-mb-0733","千佛山台北講堂﹝草創期 ﹞","Qian Fo Shan Taipei Jiang Tang",25.045491,121.570828
"tt-mb-0734","千佛山台北講堂","Qian Fo Shan Taipei Jiang Tang",25.006838,121.539373
"tt-mb-0735","大慈佛社﹝草創期 ﹞","Da Ci Fo She",24.989553,121.550148
"tt-mb-0736","佛光山大慈佛社","Fo Guang Shan Ta Tzu Temple",24.989553,121.550148
"tt-mb-0737","薩迦巴貢噶法輪中心","Sa Jia Ba Gong Ga Buddhist Center",25.006588,121.559242
"tt-mb-0738","台灣色拉傑佛學會","Taiwan Se La Jie Buddhist Institute",24.991726,121.54396
"tt-mb-0739","台北究竟實相研習學會","Taipei Jiu Jing Shi Xiang Yan Xi Xue Hui",24.983285,121.561983
"tt-mb-0740","雪謙寺","Xue Qian Si",25.001839,121.545498
"tt-mb-0741","寧瑪巴智慧佛學會","Nyingma Wisdom Buddhist Institute",25.00242,121.538991
"tt-mb-0742","風動石頭公","Feng Dong Shi Tou Gong",25.001972,121.581477
"tt-mb-0743","樟山寺","Zhang Shan Si",24.973047,121.579323
"tt-mb-0744","本願山木柵弘願念佛會","Ben Yuan Shan Mu Zha Hong Yuan Chanting Society",24.981342,121.554911
"tt-mb-0745","華藏佛教基金會","Hua Cang Fo Jiao Ji Jin Hui",24.992486,121.541973
"tt-mb-0746","無相精舍","Wu Xiang Jing She",24.991971,121.544838
"tt-mb-0747","妙慧講堂","Miao Hui Jiang Tang",25.001239,121.563532
"tt-mb-0748","慈光寺","Ci Guang Si",24.995236,121.569094
"tt-mb-0749","祥光寺","Xiang Guang Si",24.988338,121.58886
"tt-mb-0750","慈德佛堂","Ci De Fo Tang",24.993572,121.560942
"tt-mb-0751","法鼓山文山聯絡處","Dharma Drum Mountain Wenshan Liaison Office",24.98976,121.559554
"tt-mb-0752","法鼓山文山辦事處","Dharma Drum Mountain Wenshan Office",24.998936,121.545626
"tt-mb-0753","光淨寺","Guang Jing Si",24.991175,121.559859
"tt-mb-0754","達摩禪直指心園","Da Mo Chan Zhi Zhi Xin Yuan",25.001666,121.538413
"tt-mb-0755","悲智蘭若","Bei Zhi Lan Ruo",24.997336,121.551087
"tt-mb-0756","玅林佛堂","Miao Lin Fo Tang",24.981302,121.558271
"tt-mb-0757","東山菩薩學院","Dong Shan Pu Sa Xue Yuan",24.97308,121.561658
"tt-mb-0758","普聖寺","Pu Sheng Si",24.9684458,121.576361
"tt-mb-0759","菩提寺","Pu Ti Si",24.971944,121.569047
"tt-mb-0760","行陀禪舍","Xing Tuo Chan She",24.990403,121.566314
"tt-mb-0761","禪林淨苑","Chan Lin Jing Yuan",24.982523,121.559945
"tt-mb-0762","慧地精舍","Hui Di Jing She",24.983406,121.565849
"tt-mb-0763","密乘智慧中心","Mi Sheng Zhi Hui Zhong Xin",24.984106,121.566372
"tt-mb-0764","景美佛教蓮社","Jing Mei Buddhist Lotus Society",25.000776,121.54096
"tt-mb-0765","妙妙講堂","Miao Miao Jiang Tang",25.00021,121.540921
"tt-mb-0766","景華道場","Jing Hua Dao Chang",24.996005,121.547022
"tt-mb-0767","寶林淨苑","Bao Lin Jing Yuan",24.997236,121.543917
"tt-mb-0768","大毘盧寺","Da Pi Lu Si",25.003827,121.552893
"tt-mb-0769","大悲精舍","Da Bei Jing She",25.004283,121.552451
"tt-mb-0770","一心學苑","Yi Xin Xue Yuan",25.000787,121.542323
"tt-mb-0771","慈願精舍","Ci Yuan Jing She",24.997742,121.558328
"tt-mb-0772","三慧講堂文山佛教圖書館","San Hui Jiang Tang Wen Shan Fo Jiao Tu Shu Guan",24.988625,121.556643
"tt-mb-0773","東美講堂","Dong Mei Jiang Tang",24.999391,121.5674
"tt-mb-0774","佛心功德會台北市安康社區家庭服務中心分會","Buddha Heart World Headquarters An kang Community Branch",24.986977,121.561002
"tt-mb-0775","淨廬念佛會~六德淨苑","Jing Lu Chanting Society ~ Liu De Jing Yuan",24.982854,121.569556
"tt-mb-0776","生命電視木柵中心","Sheng Ming Dian Shi Mu Zha Zhong Xin",24.981835,121.566765
"tt-mb-0777","中華大乘佛學會上德講堂","Zhong Hua Da Sheng Fo Xue Hui Shang De Jiang Tang",24.983075,121.558452
"tt-mb-0778","法鼓山文山助念團","Dharma Drum Mountain Wenshan End-of-Life Caring Group",24.994776,121.561068
"tt-mb-0779","法鼓山文山禪坐會","Dharma Drum Mountain Wenshan Meditation Group",24.980831,121.558713
"tt-mb-0780","梵音寺","Fan Yin Si",25.124566,121.74853
"tt-mb-0781","嚴放寺","Yan Fang Si",25.124337,121.740682
"tt-mb-0782","源齋堂","Yuan Zhai Tang",25.129241,121.73952
"tt-mb-0783","代明宮","Dai Ming Gong",25.129241,121.73952
"tt-mb-0784","寶明寺","Bao Ming Si",25.116027,121.746119
"tt-mb-0785","法王寺","Fa Wang Si",25.123564,121.741037
"tt-mb-0786","佛教居士林","Fo Jiao Ju Shi Lin",25.126792,121.744898
"tt-mb-0787","佛來寺","Fo Lai Si",25.123032,121.739014
"tt-mb-0788","慈林淨苑","Ci Lin Jing Yuan",25.12226,121.748316
"tt-mb-0789","佛心觀音巖","Fo Xin Guan Yin Yan",25.115853,121.750134
"tt-mb-0790","基隆市佛教會","Keelung Buddhist Association",25.12536,121.742631
"tt-mb-0791","開化寺","Kai Hua Si",25.114823,121.747813
"tt-mb-0792","照善寺","Zhao Shan Si",25.125191,121.754105
"tt-mb-0793","觀音院","Guan Yin Yuan",25.125232,121.752432
"tt-mb-0794","佛光禪寺","Fo Guang Chan Si",25.124096,121.734229
"tt-mb-0795","蓮法寺","Lian Fa Si",25.127166,121.75101
"tt-mb-0796","龍華堂","Long Hua Tang",25.118277,121.7402
"tt-mb-0797","基隆市邦列中心","Keelung Bang Lie Zhong Xin",25.12331,121.742334
"tt-mb-0798","覺宏精舍","Jue Hong Jing She",25.123584,121.746885
"tt-mb-0799","佛教慈光之聲講堂","Fo Jiao Ci Guang Zhi Sheng Jiang Tang",25.129004,121.740974
"tt-mb-0800","楞嚴精舍","Leng Yan Jing She",25.126188,121.741155
"tt-mb-0801","蓮華佛教","Lian Hua Fo Jiao",25.123082,121.738953
"tt-mb-0802","佛心功德會基隆市會館","Fo Xin Gong De Hui Keelung Hui Guan",25.128758,121.746801
"tt-mb-0803","法鼓山基隆精舍","Dharma Drum Mountain Keelung Dharma Center",25.127297,121.741364
"tt-mb-0804","基隆宗南學佛會","UTBF Trungram Dharma Center: Keelung",25.127553,121.749833
"tt-mb-0805","法鼓山基隆仁愛共修處","Dharma Drum Mountain Keelung Ren Ai Practice Center",25.130361,121.740366
"tt-mb-0806","靈泉禪寺","Ling Quan Chan Si",25.116261,121.76399
"tt-mb-0807","佛教講堂","Fo Jiao Jiang Tang",25.133013,121.75059
"tt-mb-0808","大佛禪院","Da Fo Chan Yuan",25.133013,121.75059
"tt-mb-0809","基隆佛教蓮社﹝草創期 ﹞","Keelung Buddhist Lotus Monastery",25.130103,121.763357
"tt-mb-0810","中台山基隆佛教蓮社","Chung Tai Shan Keelung Buddhist Lotus Monastery",25.130103,121.763357
"tt-mb-0811","佛教講堂","Fo Jiao Jiang Tang",25.131504,121.753008
"tt-mb-0812","福光寺","Fu Guang Si",25.128906,121.773501
"tt-mb-0813","明月寺","Ming Yue Si",25.127376,121.755549
"tt-mb-0814","楞嚴寺","Leng Yan Si",25.129949,121.758538
"tt-mb-0815","人乘寺基隆精舍","Ren Sheng Si Keelung Jing She",25.128568,121.769677
"tt-mb-0816","正法明佛教圖書視聽中心","Zheng Fa Ming Fo Jiao Tu Shu Shi Ting Zhong Xin",25.129688,121.760468
"tt-mb-0817","慈淨寺","Ci Jing Si",25.123941,121.75768
"tt-mb-0818","正明淨寺","Zheng Ming Jing Si",25.132936,121.7565
"tt-mb-0819","慈善寺","Ci Shan Si",25.143541,121.777707
"tt-mb-0820","寶光寺","Bao Guang Si",25.125713,121.787571
"tt-mb-0821","興隆寺","Xing Long Si",25.132177,121.75007
"tt-mb-0822","海雲講堂","Hai Yun Jiang Tang",25.127311,121.765779
"tt-mb-0823","宏法講堂","Hong Fa Jiang Tang",25.129563,121.747335
"tt-mb-0824","善慧精舍","Shan Hui Jing She",25.137967,121.775541
"tt-mb-0825","普門佛堂","Pu Men Fo Tang",25.129032,121.753127
"tt-mb-0826","法鼓山基隆聯絡處﹝草創期﹞","Dharma Drum Mountain Keelung Liaison Office",25.128878,121.750652
"tt-mb-0827","法鼓山基隆聯絡處","Dharma Drum Mountain Keelung Liaison Office",25.128878,121.750652
"tt-mb-0828","法鼓山基隆辦事處","Dharma Drum Mountain Keelung Office",25.128878,121.750652
"tt-mb-0829","清水巖祖師廟","Qing Shui Yan Zu Shi Miao",25.12716,121.770128
"tt-mb-0830","濟安宮","Ji An Gong",25.13116,121.753531
"tt-mb-0831","光尊寺","Guang Zun Temple",25.130599,121.74706
"tt-mb-0832","極樂寺﹝草創期 ﹞","Chi Le Temple",25.130599,121.74706
"tt-mb-0833","佛光山極樂寺","Fo Guang Shan Chi Le Temple",25.130599,121.74706
"tt-mb-0834","久寶寺","Jiu Bao Si",25.132808,121.746856
"tt-mb-0835","浮雲寺","Fu Yun Si",25.155404,121.76572
"tt-mb-0836","東明寺","Dong Ming Si",25.137859,121.752236
"tt-mb-0837","紫竹巖","Zi Zhu Yan",25.137125,121.752054
"tt-mb-0838","覺修宮","Jue Xiu Gong",25.135328,121.748619
"tt-mb-0839","法天禪院","Fa Tian Chan Yuan",25.144512,121.769285
"tt-mb-0840","基隆佛教同修會","Keelung Fo Jiao Tong Xiu Hui",25.132514,121.74595
"tt-mb-0841","福泉庵","Fu Quan An",25.142102,121.788988
"tt-mb-0842","妙法蓮華寺","Miao Fa Lian Hua Si",25.143625,121.765466
"tt-mb-0843","妙音寺","Miao Yin Si",25.146542,121.768551
"tt-mb-0844","慈嚴精舍","Ci Yan Jing She",25.137464,121.751834
"tt-mb-0845","彌陀淨苑","Mi Tuo Jing Yuan",25.15858,121.763991
"tt-mb-0846","福巖寺","Fu Yan Si",25.133553,121.748804
"tt-mb-0847","妙蓮華堂","Miao Lian Hua Tang",25.136696,121.748369
"tt-mb-0848","甘露堂","Gan Lou Tang",25.130818,121.79867
"tt-mb-0849","靈鷲山基隆講堂","Ling Jiou Mountain Keelung Dharma Hall",25.133284,121.74566
"tt-mb-0850","福智基隆支苑","Fu Zhi Keelung Zhi Yuan",25.13065,121.746518
"tt-mb-0851","創價學會基隆講堂","Chuang Jia Xue Hui Keelung Jiang Tang",25.132724,121.744692
"tt-mb-0852","慈濟基隆聯絡處","Ci Ji Keelung Lian Luo Chu",25.133341,121.745133
"tt-mb-0853","生命電視基隆中心","Sheng Ming Dian Shi Keelung Zhong Xin",25.151238,121.767371
"tt-mb-0854","神廟﹝名稱未知﹞","Shen Miao",25.136145,121.737763
"tt-mb-0855","千佛禪寺","Qian Fo Monastery",25.136145,121.737763
"tt-mb-0856","佛光山千佛禪寺","Fo Guang Shan Qian Fo Monastery",25.136145,121.737763
"tt-mb-0857","代明宮﹝草創期 ﹞","Dai Ming Gong",25.145041,121.74824
"tt-mb-0858","最勝寺﹝草創期 ﹞","Zui Sheng Si",25.145041,121.74824
"tt-mb-0859","仙洞巖最勝寺","Xian Dong Yan Zui Sheng Si",25.145041,121.74824
"tt-mb-0860","仙洞巖佛寺","Xian Dong Yan Fo Si",25.144988,121.748482
"tt-mb-0861","淨因堂","Jing Yin Tang",25.133568,121.737945
"tt-mb-0862","淨因寺","Jing Yin Si",25.133668,121.737645
"tt-mb-0863","慧光善友會","Hui Guang Shan You Hui",25.14748,121.738595
"tt-mb-0864","福興宮","Fu Xing Gong",25.146684,121.738296
"tt-mb-0865","聖安宮","Sheng An Gong",25.144293,121.747586
"tt-mb-0866","德安宮","De An Gong",25.148805,121.744389
"tt-mb-0867","慧緣淨寺","Hui Yuan Jing Si",25.147305,121.744952
"tt-mb-0868","仁義宮","Ren Yi Gong",25.147062,121.745918
"tt-mb-0869","福德宮","Fu De Gong",25.156997,121.729304
"tt-mb-0870","太白莊福德宮","Tai Bai Zhuang Fu De Gong",25.153607,121.744001
"tt-mb-0871","善法禪寺","Shan Fa Chan Si",25.143385,121.737201
"tt-mb-0872","福民宮","Fu Min Gong",25.141809,121.736395
"tt-mb-0873","潮音堂","Chao Yin Tang",25.134471,121.737747
"tt-mb-0874","十方大覺禪寺﹝草創期 ﹞","Shi Fang Da Jue Chan Monastery",25.13066,121.72796
"tt-mb-0875","中台山十方大覺禪寺","Chung Tai Shan Shi Fang Da Jue Chan Monastery",25.13066,121.72796
"tt-mb-0876","海印寺","Hai Yin Si",25.130097,121.727569
"tt-mb-0877","慈雲寺","Ci Yun Si",25.132361,121.73058
"tt-mb-0878","菩提禪寺","Pu Ti Chan Si",25.133039,121.732808
"tt-mb-0879","準提寺","Zhun Ti Si",25.133444,121.729111
"tt-mb-0880","益心寺","Yi Xin Si",25.133614,121.729951
"tt-mb-0881","普陀山通明寺","Pu Tuo Shan Tong Ming Si",25.128953,121.725844
"tt-mb-0882","康福宮","Kang Fu Gong",25.128341,121.726987
"tt-mb-0883","基隆淨宗學會","Keelung Pureland Learning Center",25.122301,121.725153
"tt-mb-0884","慈濟基隆共修處","Ci Ji Keelung Gong Xiu Chu",25.136112,121.724023
"tt-mb-0885","醒天宮","Xing Tian Gong",25.128447,121.731064
"tt-mb-0886","圓通寺","Yuan Tong Si",25.139786,121.726134
"tt-mb-0887","淨土精舍","Jing Tu Jing She",25.13081,121.733873
"tt-mb-0888","慈音念佛會","Ci Yin Chanting Society",25.14119,121.723986
"tt-mb-0889","創價學會基隆文化會館","Chuang Jia Xue Hui Keelung Wen Hua Hui Guan",25.129031,121.733575
"tt-mb-0890","法鼓山基隆新城共修處","Dharma Drum Mountain Keelung Xin Cheng Practice Center",25.126264,121.715792
"tt-mb-0891","慈明寺﹝草創期 ﹞","Ci Ming Monastery",25.106153,121.742543
"tt-mb-0892","中台山慈明寺","Chung Tai Shan Ci Ming Monastery",25.106153,121.742543
"tt-mb-0893","金山寺","Jin Shan Si",25.100537,121.74029
"tt-mb-0894","海會寺","Hai Hui Si",25.110145,121.73837
"tt-mb-0895","千佛山地藏庵","Qian Fo Shan Di Cang An",25.110763,121.738767
"tt-mb-0896","指修宮","Zhi Xiu Gong",25.109207,121.735061
"tt-mb-0897","毫光寺","Hao Guang Si",25.102894,121.75412
"tt-mb-0898","覺修精舍","Jue Xiu Jing She",25.095349,121.737504
"tt-mb-0899","淨蓮精舍","Jing Lian Jing She",25.091427,121.754049
"tt-mb-0900","法嚴寺","Fa Yan Si",25.096976,121.721574
"tt-mb-0901","清泉寺","Qing Quan Si",25.11953,121.70965
"tt-mb-0902","寧瑪巴禪法園佛學會","Nyingma Chan fa yuan Buddhist Institute",25.104638,121.670473
"tt-mb-0903","甘丹顯密佛學會","Gan Dan Xian Mi Buddhist Institute",25.138812,121.639632
"tt-mb-0904","衜竹寺","Dao Zhu Si",25.136882,121.634741
"tt-mb-0905","靜修寺","Jing Xiu Si",25.117209,121.656225
"tt-mb-0906","廣雲宮","Guang Yun Gong",25.115183,121.665039
"tt-mb-0907","覺園念佛會","Jue Yuan Chanting Society",25.095076,121.720913
"tt-mb-0908","泰山巖","Tai Shan Yan",25.094754,121.670903
"tt-mb-0909","基隆百福淨宗學會","Keelung Bai Fu Pureland Learning Center",25.087313,121.69767
"tt-mb-0910","靈鷲山萬金共修處","Ling Jiou Mountain Wan Jin Practice Center",25.17984,121.688389
"tt-mb-0911","中台山萬里靈泉寺","Chung Tai Shan Wanli Ling Quan Chan Monastery",25.14271,121.609752
"tt-mb-0912","中台山天祥寶塔禪寺","Chung Tai Shan Tian Xiang Chan Monastery",25.175073,121.650399
"tt-mb-0913","善德寺","Shan De Si",25.21891,121.645142
"tt-mb-0914","佛峰寺","Fo Feng Si",25.143206,121.611764
"tt-mb-0915","金海禪寺","Jin Hai Chan Si",25.211202,121.635325
"tt-mb-0916","圓濟寺","Yuan Ji Si",25.174533,121.658715
"tt-mb-0917","慈湖寺","Ci Hu Si",25.17417,121.6563641
"tt-mb-0918","九安寺","Jiu An Si",25.155967,121.644101
"tt-mb-0919","聖覺寺","Sheng Jue Si",25.161677,121.651686
"tt-mb-0920","正覺寺","Zheng Jue Si",25.187681,121.638968
"tt-mb-0921","法鼓山﹝籌備階段 ﹞","Dharma Drum Mountain",25.240261,121.615138
"tt-mb-0922","法鼓山世界佛教教育園區","Dharma Drum Mountain Complex",25.240261,121.615138
"tt-mb-0923","金山寺","Jin Shan Si",25.234525,121.62503
"tt-mb-0924","慧明禪寺","Hui Ming Chan Si",25.247063,121.611878
"tt-mb-0925","法鼓山金包里共修處","Dharma Drum Mountain Jin-bao-li Practice Center",25.221357,121.638864
"tt-mb-0926","法鼓山金山共修處","Dharma Drum Mountain Jinshan Practice Center",25.219331,121.637934
"tt-mb-0927","法鼓山金山辦事處","Dharma Drum Mountain Jinshan Office",25.220834,121.635007
"tt-mb-0928","安樂寺","An Le Si",25.249889,121.606293
"tt-mb-0929","金法林","Jin Fa Lin",25.199411,121.596785
"tt-mb-0930","嚴淨寺","Yan Jing Si",25.233036,121.616812
"tt-mb-0931","金恩禪寺","Jin En Chan Si",25.240261,121.615138
"tt-mb-0932","慧光大佛山圓通寺","Hui Guang Da Fo Shan Yuan Tong Si",25.204533,121.619044
"tt-mb-0933","慈濟板橋志業園區","Ci Ji Ban Qiao Zhi Ye Yuan Qu",24.996307,121.442468
"tt-mb-0934","中台山普明精舍","Chung Tai Shan Pu Ming Meditation Center",25.018825,121.464945
"tt-mb-0935","中台山普因精舍﹝草創期 ﹞","Chung Tai Shan Pu Yin Meditation Center (Taipei County)",25.006974,121.46347
"tt-mb-0936","中台山普因精舍","Chung Tai Shan Pu Yin Meditation Center (Taipei County)",25.002365,121.453932
"tt-mb-0937","佛光山板橋講堂","Fo Guang Shan Pan Chiao Temple",24.996638,121.455971
"tt-mb-0938","祥天寺","Xiang Tian Si",25.011291,121.454302
"tt-mb-0939","慈雲巖","Ci Yun Yan",24.981326,121.490587
"tt-mb-0940","接雲寺﹝草創期﹞","Jie Yun Si",25.009012,121.454541
"tt-mb-0941","板橋接雲寺","Ban Qiao Jie Yun Si",25.009012,121.454541
"tt-mb-0942","一言精舍","Yi Yan Jing She",25.013295,121.453691
"tt-mb-0943","宏法禪寺","Hong Fa Chan Si",25.001914,121.458531
"tt-mb-0944","台北縣板橋市大佛寺","Taipei County Ban Qiao Da Fo Si",25.025928,121.469173
"tt-mb-0945","靈光寺","Ling Guang Si",24.990113,121.428141
"tt-mb-0946","台灣法身寺禪修協會","Dhammakaya Internation Meditation Center of Taipei",24.997277,121.455698
"tt-mb-0947","艋舺龍山寺板橋文化廣場","Meng Jia Long Shan Si Ban Qiao Wen Hua Guang Chang",25.027726,121.471075
"tt-mb-0948","法林寺","Fa Lin Si",25.028268,121.472321
"tt-mb-0949","板橋佛教講堂","Ban Qiao Fo Jiao Jiang Tang",25.010749,121.455861
"tt-mb-0950","開成禪寺三德講堂","Kai Cheng Chan Si San De Jiang Tang",25.005277,121.459788
"tt-mb-0951","慈蓮寺板橋精舍","Ci Lian Si Ban Qiao Jing She",25.028859,121.482531
"tt-mb-0952","法鼓山板橋共修處","Dharma Drum Mountain Pan Chiao Practice Center",25.025175,121.4717997
"tt-mb-0953","法鼓山海山辦事處","Dharma Drum Mountain Hai Shan Office",25.020804,121.478898
"tt-mb-0954","海蓮精舍","Hai Lian Jing She",25.024877,121.480602
"tt-mb-0955","禪淨佛堂","Chan Jing Fo Tang",25.01423,121.453278
"tt-mb-0956","淨慈寺","Jing Ci Si",25.00319,121.459392
"tt-mb-0957","如意講堂","Ru Yi Jiang Tang",25.014374,121.468633
"tt-mb-0958","觀音學舍","Guan Yin Xue She",25.019505,121.48328
"tt-mb-0959","無量壽助念團","Wu Liang Shou Zhu Nian Tuan",25.019297,121.460052
"tt-mb-0960","佛光精舍","Fo Guang Jing She",25.019152,121.454314
"tt-mb-0961","板橋佛教蓮社","Ban Qiao Buddhist Lotus Society",25.007423,121.454807
"tt-mb-0962","鳳山寺","Feng Shan Si",25.033897,121.478142
"tt-mb-0963","金源禪寺","Jin Yuan Chan Si",25.019588,121.466671
"tt-mb-0964","慈照寺板橋講堂","Ci Zhao Si Ban Qiao Jiang Tang",24.996882,121.455683
"tt-mb-0965","彌陀蓮池精舍","Mi Tuo Lian Chi Jing She",24.994017,121.452917
"tt-mb-0966","普提精舍","Pu Ti Jing She",25.029199,121.462671
"tt-mb-0967","般若精舍","Po Ruo Jing She",25.014729,121.474363
"tt-mb-0968","法林精舍","Fa Lin Jing She",25.02909,121.463854
"tt-mb-0969","梵音寺","Fan Yin Si",25.016896,121.463165
"tt-mb-0970","接源堂","Jie Yuan Tang",25.017771,121.461743
"tt-mb-0971","菩提院","Pu Ti Yuan",25.016468,121.461679
"tt-mb-0972","正修學舍","Zheng Xiu Xue She",25.017712,121.474634
"tt-mb-0973","月光精舍","Yue Guang Jing She",25.009828,121.460107
"tt-mb-0974","台灣噶瑪列些林高級佛學院","Taiwan Ga ma Lie xie lin Buddhist Institute",24.994533,121.457844
"tt-mb-0975","金霞寺","Jin Xia Si",25.015694,121.451432
"tt-mb-0976","妙音學佛會","Miao Yin Xue Fo Hui",25.02242,121.457249
"tt-mb-0977","板橋佛光院","Ban Qiao Fo Guang Yuan",25.007495,121.445739
"tt-mb-0978","板橋彌陀佛教青年會","Ban Qiao Mi Tuo Buddhist Young Buddhists Society",25.015341,121.467124
"tt-mb-0979","板橋彌陀精舍","Ban Qiao Mi Tuo Jing She",25.014918,121.465573
"tt-mb-0980","板橋智慧金剛佛學中心","Ban Qiao Zhi Hui Jin Gang Buddhist Center",25.029165,121.463783
"tt-mb-0981","噶寧菩提法園佛學會","Ga Ning Pu Ti Fa Yuan Buddhist Institute",25.013149,121.474978
"tt-mb-0982","寧瑪三根本法洲佛學研究會","Nyingma San Gen Ben Fa Zhou Fo Xue Yan Jiu Hui",25.030389,121.461507
"tt-mb-0983","生命電視板橋講堂","Sheng Ming Dian Shi Ban Qiao Jiang Tang",25.028779,121.472591
"tt-mb-0984","西蓮板橋講堂","Seeland Ban Qiao Dharma Hall",25.011937,121.448626
"tt-mb-0985","板橋居士林","Ban Qiao Ju Shi Lin",25.000379,121.444837
"tt-mb-0986","中國藏密薩迦佛學研究會﹝草創期 ﹞","Cang Mi Sa Jia Fo Xue Yan Jiu Hui (R.O.C.)",24.952299,121.418978
"tt-mb-0987","中國藏密薩迦佛學研究會","Cang Mi Sa Jia Fo Xue Yan Jiu Hui (R.O.C.)",24.992438,121.430586
"tt-mb-0988","中國佛教功德會","Zhong Guo Fo Jiao Gong De Hui",25.027232,121.483085
"tt-mb-0989","創價學會板橋文化會館","Chuang Jia Xue Hui Ban Qiao Wen Hua Hui Guan",25.0227,121.468669
"tt-mb-0990","彌陀淨舍","Mi Tuo Jing She",25.02342,121.476597
"tt-mb-0991","法鼓山板橋聯絡處﹝成功路 ﹞","Dharma Drum Mountain Pan Chiao Liaison Office",25.018103,121.47465
"tt-mb-0992","法鼓山板橋聯絡處﹝仁化街 ﹞","Dharma Drum Mountain Pan Chiao Liaison Office",25.031049,121.475739
"tt-mb-0993","板橋東富講堂","Ban Qiao Dong Fu Jiang Tang",25.013373,121.45612
"tt-mb-0994","性明佛堂","Xing Ming Fo Tang",25.005601,121.460086
"tt-mb-0995","慈悟寺","Ci Wu Si",25.025722,121.465289
"tt-mb-0996","三寶佛堂","San Bao Fo Tang",25.022805,121.465286
"tt-mb-0997","觀音亭","Guan Yin Ting",25.005493,121.458057
"tt-mb-0998","淨蓮精舍","Jing Lian Jing She",24.988895,121.428793
"tt-mb-0999","福興堂","Fu Xing Tang",25.006743,121.444953
"tt-mb-1000","秀峰山靜修禪院","Xiu Feng Shan Jing Xiu Chan Yuan",25.061659,121.661366
"tt-mb-1001","慈航大師開山彌勒內院","Ci Hang Da Shi Kai Shan Mi Le Nei Yuan",25.0604,121.662569
"tt-mb-1002","慈航紀念堂","Ci Hang Ji Nian Tang",25.058887,121.664038
"tt-mb-1003","金龍山北峰寺","Jin Long Shan Bei Feng Si",25.074151,121.631339
"tt-mb-1004","白雲寺","Bai Yun Si",25.041282,121.651837
"tt-mb-1005","慈慧精舍","Ci Hui Jing She",25.072189,121.665688
"tt-mb-1006","普賢淨行會台北道場","Pu Xian Jing Xing Hui Taipei Dao Chang �",25.07348,121.67385
"tt-mb-1007","汐止淨宗學會","Xi Zhi Pureland Learning Center",25.070081,121.662824
"tt-mb-1008","汐止佛教蓮社","Xi Zhi Buddhist Lotus Society",25.070175,121.663213
"tt-mb-1009","覺善寺","Jue Shan Si",25.065262,121.692923
"tt-mb-1010","大圓山寺","Da Yuan Shan Si",25.06302,121.696257
"tt-mb-1011","南屏山靈隱寺","Nan Ping Shan Ling Yin Si",25.114134,121.642079
"tt-mb-1012","聖覺寺","Sheng Jue Si",25.113143,121.631881
"tt-mb-1013","廣修禪寺","Guang Xiu Chan Si",25.113746,121.636033
"tt-mb-1014","淨業講堂","Jing Ye Jiang Tang",25.07062,121.665609
"tt-mb-1015","彌陀禪寺","Mi Tuo Chan Si",25.04066,121.625492
"tt-mb-1016","福慧蘭若","Fu Hui Lan Ruo",25.079096,121.674136
"tt-mb-1017","華嚴蘭若","Hua Yan Lan Ruo",25.069589,121.667274
"tt-mb-1018","寧瑪四臂觀音學會","Nyingma Si Bei Guan Yin Xue Hui",25.067491,121.62748
"tt-mb-1019","慈濟汐止共修處","Ci Ji Xi Zhi Gong Xiu Chu",25.063072,121.626682
"tt-mb-1020","靈菩寺","Ling Pu Si",25.07428,121.669517
"tt-mb-1021","文殊師利佛學會","Wen Shu Shi Li Buddhist Institute",25.063668,121.653552
"tt-mb-1022","噶陀仁珍千寶佛學會","Kathok Ren Zhen Qian Bao Buddhis Association",25.044327,121.634106
"tt-mb-1023","創價學會汐止文化會館","Chuang Jia Xue Hui Xi Zhi Wen Hua Hui Guan",25.072709,121.678144
"tt-mb-1024","慈善精舍","Ci Shan Jing She",25.059522,121.637621
"tt-mb-1025","閤密禪修中心","He Mi Chan Xiu Zhong Xin",24.985856,121.612776
"tt-mb-1026","寧瑪巴白玉佛學會深坑中心","Nyingmapa Palyul Dharma Shen Keng Center",25.007795,121.627322
"tt-mb-1027","正慧精舍","Zheng Hui Jing She",24.999339,121.625398
"tt-mb-1028","深坑觀自在淨宗學會","Shen Keng Guan Zi Zai Pureland Learning Center",25.001138,121.609681
"tt-mb-1029","靈明寺","Ling Ming Si",24.98756,121.631168
"tt-mb-1030","雲登山寺","Yun Deng Shan Si",24.98561,121.614096
"tt-mb-1031","正覺寺","Zheng Jue Si",25.005395,121.632646
"tt-mb-1032","龍鳳寺","Long Feng Si",25.009165,121.598717
"tt-mb-1033","法鼓山深坑禪坐會","Dharma Drum Mountain Shenkeng Meditation Group",25.002514,121.616777
"tt-mb-1034","法鼓山深坑共修處","Dharma Drum Mountain Shenkeng Practice Center",25.002536,121.617143
"tt-mb-1035","深坑聖慈山慈誠寺","Shen Keng Sheng Ci Shan Ci Cheng Si",25.010861,121.59904
"tt-mb-1036","法濟寺﹝草創期 ﹞","Fa Ji Si",24.955611,121.532815
"tt-mb-1037","法濟寺","Fa Ji Si",25.005479,121.660981
"tt-mb-1038","佛心山惠光寺","Fo Xin Shan Hui Guang Si",25.021358,121.64851
"tt-mb-1039","潮音佈教所","Chao Yin Bu Jiao Suo",25.031911,121.666513
"tt-mb-1040","光明禪寺","Guang Ming Chan Si",25.031911,121.666513
"tt-mb-1041","靈山禪林寺","Ling Shan Chan Lin Si",25.008586,121.701786
"tt-mb-1042","文山寺","Wen Shan Si",25.02301,121.649911
"tt-mb-1043","南屏山壺酒寺","Nan Ping Shan Hu Jiu Si",25.003402,121.690281
"tt-mb-1044","蓮池庵","Lian Chi An",25.03119,121.666579
"tt-mb-1045","佛濟寺","Fo Ji Si",24.962796,121.625364
"tt-mb-1046","大願山拜佛寺","Da Yuan Shan Bai Fo Si",24.956326,121.625336
"tt-mb-1047","慈蓮苑","Ci Lian Yuan",24.977639,121.691646
"tt-mb-1048","達香寺","Da Xiang Si",24.968412,121.692585
"tt-mb-1049","龍法禪寺","Long Fa Chan Si",24.98712,121.665079
"tt-mb-1050","菩提山大空精舍","Pu Ti Shan Da Kong Jing She",24.969862,121.632252
"tt-mb-1051","崇聖廟","Chong Sheng Miao",25.005157,121.671145
"tt-mb-1052","中台山普金精舍","Chung Tai Shan Pu Yin Meditation Center",25.109261,121.845052
"tt-mb-1053","金山佛堂","Jin Shan Fo Tang",25.106468,121.841758
"tt-mb-1054","金山寺﹝草創期 ﹞","Jin Shan Si",25.110792,121.840508
"tt-mb-1055","日新佈教所","Ri Xin Bu Jiao Suo",25.110792,121.840508
"tt-mb-1056","金山寺","Jin Shan Si",25.110792,121.840508
"tt-mb-1057","金瓜石寺","Jin Gua Shi Si",25.110415,121.856477
"tt-mb-1058","金泉寺","Jin Quan Si",25.110415,121.856477
"tt-mb-1059","保安宮","Bao An Gong",25.100134,121.781623
"tt-mb-1060","龍巖宮","Long Yan Gong",25.108845,121.803956
"tt-mb-1061","弘明寺","Hong Ming Si",25.112385,121.809749
"tt-mb-1062","靈光精舍","Ling Guang Jing She",25.09984,121.76471
"tt-mb-1063","慈音寺","Ci Yin Si",25.092857,121.778941
"tt-mb-1064","夢幻寺","Meng Huan Si",25.063375,121.827809
"tt-mb-1065","慈雲寺","Ci Yun Si",25.119924,121.828991
"tt-mb-1066","佛慈禪寺","Fo Ci Chan Si",25.093916,121.820698
"tt-mb-1067","大行山聖泉寺","Da Heng Shan Sheng Quan Si",25.062525,121.827409
"tt-mb-1068","法龍寺","Fa Long Si",25.109552,121.808521
"tt-mb-1069","金山岩","Jin Shan Yan",25.107419,121.842836
"tt-mb-1070","大法寺﹝草創期 ﹞","Da Fa Si",25.025845,121.750482
"tt-mb-1071","十方大法寺","Shi Fang Da Fa Si",25.025845,121.750482
"tt-mb-1072","大悲巖","Da Bei Yan",25.045238,121.77996
"tt-mb-1073","蓬萊普陀山叢林","Peng Lai Pu Tuo Shan Cong Lin",25.020177,121.739577
"tt-mb-1074","大慧寺","Da Hui Si",25.025048,121.736729
"tt-mb-1075","觀音巖","Guan Yin Yan",25.025463,121.738188
"tt-mb-1076","善覺寺","Shan Jue Si",25.030439,121.760112
"tt-mb-1077","天寧寺","Tian Ning Si",25.033638,121.746968
"tt-mb-1078","靈巖寺","Ling Yan Si",25.043309,121.744426
"tt-mb-1079","觀音普陀寺","Guan Yin Pu Tuo Si",25.021325,121.739883
"tt-mb-1080","大香山觀音禪寺","Da Xiang Shan Guan Yin Chan Si",25.02112,121.70405
"tt-mb-1081","臨濟宗雙溪佈教所","Lin Ji Zong Shuang Xi Bu Jiao Suo",25.049556,121.854772
"tt-mb-1082","聖南寺","Sheng Nan Si",25.049556,121.854772
"tt-mb-1083","興道山聖南寺","Xing Dao Shan Sheng Nan Si",25.052261,121.857414
"tt-mb-1084","深庫佛寺","Shen Ku Fo Si",25.001308,121.829748
"tt-mb-1085","無量光寺","Wu Liang Guang Si",25.020848,121.817404
"tt-mb-1086","龍華山大觀寺","Long Hua Shan Da Guan Si",25.050665,121.869006
"tt-mb-1087","慈濟雙溪共修處","Ci Ji Shuang Xi Gong Xiu Chu",25.038136,121.864754
"tt-mb-1088","慧法寺","Hui Fa Si",25.034433,121.855672
"tt-mb-1089","聖山寺","Sacred Mountain Monastery",25.017173,121.950345
"tt-mb-1090","靈鷲山聖山寺","Ling Jiou Mountain Sacred Mountain Monastery",25.017173,121.950345
"tt-mb-1091","靈鷲山無生道場","Ling Jiou Mountain Wu Sheng Monastery",25.017795,121.973669
"tt-mb-1092","利洋宮","Li Yang Gong",25.011996,121.991423
"tt-mb-1093","慈濟澳底共修處","Ci Ji Ao Di Gong Xiu Chu",25.053135,121.923955
"tt-mb-1094","西靈巖寺","Xi Ling Yan Si",25.105135,121.921257
"tt-mb-1095","慈願寺","Ci Yuan Si",25.068892,121.888358
"tt-mb-1096","大聖爺廟","Da Sheng Ye Miao",25.020588,121.962746
"tt-mb-1097","天岳山雲陽寺","Tian Yue Shan Yun Yang Si",24.957352,121.572968
"tt-mb-1098","廣明寺","Guang Ming Si",24.959827,121.540235
"tt-mb-1099","海會寺","Hai Hui Si",24.942031,121.537832
"tt-mb-1100","淨業寺","Jing Ye Si",24.953748,121.541984
"tt-mb-1101","新店碧潭大佛寺","Xin Dian Bi Tan Da Fo Si",24.955358,121.533728
"tt-mb-1102","新店廣照禪寺","Xin Dian Guang Zhao Chan Si",24.960158,121.540862
"tt-mb-1103","中台山普善精舍﹝草創期 ﹞","Chung Tai Shan Pu Shan Meditation Center",24.984336,121.541077
"tt-mb-1104","中台山普善精舍","Chung Tai Shan Pu Shan Meditation Center",24.984336,121.541077
"tt-mb-1105","海藏寺","Hai Cang Si",24.956655,121.533871
"tt-mb-1106","甘珠精舍","Gan Zhu Jing She",24.980411,121.538611
"tt-mb-1107","竹林寺","Zhu Lin Si",24.956509,121.541748
"tt-mb-1108","養源堂","Yang Yuan Tang",24.925206,121.540805
"tt-mb-1109","慈玄佛堂","Ci Xuan Fo Tang",24.960679,121.540734
"tt-mb-1110","慈玄寺","Ci Xuan Si",24.960679,121.540734
"tt-mb-1111","復仁園居士林","Fu Ren Yuan Ju Shi Lin",24.973799,121.540609
"tt-mb-1112","金源禪寺","Jin Yuan Chan Si",24.959131,121.513775
"tt-mb-1113","覺圓寺","Jue Yuan Si",24.899529,121.540651
"tt-mb-1114","青山巖","Qing Shan Yan",24.96585,121.509904
"tt-mb-1115","妙祥禪寺","Miao Xiang Chan Si",24.903749,121.504942
"tt-mb-1116","菩提觀音寺","Pu Ti Guan Yin Si",24.956982,121.534306
"tt-mb-1117","大光寺","Da Guang Si",24.911656,121.536767
"tt-mb-1118","妙法寺","Miao Fa Si",24.960062,121.537647
"tt-mb-1119","華嚴寺","Hua Yan Si",24.959295,121.49985
"tt-mb-1120","碧潭寺","Bi Tan Si",24.960377,121.54082
"tt-mb-1121","慈善寺","Ci Shan Si",24.958895,121.581247
"tt-mb-1122","中台山印月禪寺","Chung Tai Shan Yin Yue Chan Monastery",24.912707,121.534762
"tt-mb-1123","佛光山新店禪淨中心","Fo Guang Shan Shin Dian Temple",24.974146,121.543113
"tt-mb-1124","中台山普燈精舍","Chung Tai Shan Pu Deng Meditation Center",24.960514,121.509392
"tt-mb-1125","聖弘寺","Sheng Hong Si",24.955375,121.538058
"tt-mb-1126","慈雲禪寺","Ci Yun Chan Si",24.92808,121.544458
"tt-mb-1127","法藏佛教文物流通處","Fa Cang Fo Jiao Wen Wu Liu Tong Chu",24.971929,121.534797
"tt-mb-1128","仁光精舍","Ren Guang Jing She",24.972582,121.53388
"tt-mb-1129","虛雲精舍","Xu Yun Jing She",24.969843,121.536841
"tt-mb-1130","弘化清靜院","Hong Hua Qing Jing Yuan",24.974642,121.527128
"tt-mb-1131","蓮花精舍","Lian Hua Jing She",24.975221,121.528681
"tt-mb-1132","素心精舍","Su Xin Jing She",24.974196,121.528748
"tt-mb-1133","竹雲寺","Zhu Yun Si",24.949487,121.567869
"tt-mb-1134","法鼓山新店景美共修處","Dharma Drum Mountain Shin Dian Jing Mei Practice Center",24.979751,121.540763
"tt-mb-1135","法鼓山新店共修處﹝民權路 ﹞","Dharma Drum Mountain Shin Dian Practice Center",24.98261,121.536595
"tt-mb-1136","法鼓山新店共修處﹝北新路二段 ﹞","Dharma Drum Mountain Shin Dian Practice Center",24.974156,121.542686
"tt-mb-1137","法鼓山新店共修處﹝北新路三段 ﹞","Dharma Drum Mountain Shin Dian Practice Center",24.981407,121.541382
"tt-mb-1138","法鼓山新店辦事處","Dharma Drum Mountain Shin Dian Office",24.967319,121.540609
"tt-mb-1139","月湄精舍","Yue Mei Jing She",24.95353,121.541524
"tt-mb-1140","慈恩精舍","Ci En Jing She",24.957487,121.538429
"tt-mb-1141","妙慧精舍","Miao Hui Jing She",24.958776,121.571077
"tt-mb-1142","蓮池講堂","Lian Chi Jiang Tang",24.965732,121.541909
"tt-mb-1143","梵光精舍","Fan Guang Jing She",24.976799,121.542551
"tt-mb-1144","般若佛堂","Po Ruo Fo Tang",24.975236,121.543951
"tt-mb-1145","常精進學佛會瑞音佛堂","Chang Jing Jin Xue Fo Hui Rui Yin Fo Tang",24.960695,121.539175
"tt-mb-1146","佛像復光明寺","Fo Xiang Fu Guang Ming Si",24.960578,121.540367
"tt-mb-1147","玉山禪寺","Yu Shan Chan Si",24.96039,121.540806
"tt-mb-1148","知善精舍","Zhi Shan Jing She",24.964342,121.540646
"tt-mb-1149","弘道精會","Hong Dao Jing Hui",24.953033,121.493486
"tt-mb-1150","桑定卻林閉關中心","Sang ding Que lin Retreat Center",24.93381,121.554098
"tt-mb-1151","天龍寺","Tian Long Si",24.954245,121.592718
"tt-mb-1152","慈航禪寺","Ci Hang Chan Si",24.953875,121.481713
"tt-mb-1153","法鼓山屈尺共修處","Dharma Drum Mountain Qu Chi Practice Center",24.909998,121.551521
"tt-mb-1154","法鼓山屈尺共修處","Dharma Drum Mountain Qu Chi Practice Center",24.902865,121.551532
"tt-mb-1155","慈航寺","Ci Hang Si",24.973352,121.545687
"tt-mb-1156","停雲居","Ting Yun Ju",24.96427,121.541227
"tt-mb-1157","淨緣講堂","Jing Yuan Jiang Tang",24.9781,121.551467
"tt-mb-1158","佛所護念廟","Fo Suo Hu Nian Miao",24.970493,121.550408
"tt-mb-1159","中華佛教直貢噶舉甚深圓滿協會","Zhong Hua Fo Jiao Zhi Gong Kagyu Shen Shen Yuan Man Xie Hui",24.984481,121.534251
"tt-mb-1160","南方寶生佛剎","Nan Fang Bao Sheng Fo Cha",24.969226,121.550228
"tt-mb-1161","寧瑪巴白玉祥丘達吉林佛學會","Nyingmapa Palyul Jangchub Dhargyjeling Dharma Center",24.982537,121.534844
"tt-mb-1162","台北縣藏密薩迦喜金剛協會","Taipei County Cang Mi Sa Jia Xi Jin Gang Xie Hui",24.946885,121.497016
"tt-mb-1163","台北縣密宗大悲法輪協會","Taipei County Mi Zong Da Bei Fa Lun Xie Hui",24.94422,121.476112
"tt-mb-1164","台灣智慧法輪學會","Taiwan Zhi Hui Fa Lun Xue Hui",24.977114,121.541409
"tt-mb-1165","悉達多本願佛學會","Xi Da Duo Ben Yuan Buddhist Institute",24.979503,121.545353
"tt-mb-1166","法明禪寺","Fa Ming Chan Si",24.938896,121.498143
"tt-mb-1167","台灣禪宗佛教會","Taiwan Zen Buddhist Association",24.982964,121.535668
"tt-mb-1168","新店悟覺精舍","Xin Dian Wu Jue Jing She",24.983043,121.539609
"tt-mb-1169","生命電視新店大明講堂","Sheng Ming Dian Shi Xin Dian Da Ming Jiang Tang",24.970589,121.545371
"tt-mb-1170","創價學會景美文化會館","Chuang Jia Xue Hui Jing Mei Wen Hua Hui Guan",24.984795,121.53387
"tt-mb-1171","安坑閉關中心","An Keng Retreat Center",24.959207,121.508203
"tt-mb-1172","生命電視安康中心","Sheng Ming Dian Shi An Kang Zhong Xin",24.951281,121.484105
"tt-mb-1173","元一佛堂","Yuan Yi Fo Tang",24.98062,121.537113
"tt-mb-1174","廣明巖","Guang Ming Yan",24.95945,121.53944
"tt-mb-1175","同淨蘭若","Tong Jing Lan Ruo",24.969719,121.549322
"tt-mb-1176","紫竹禪寺","Zi Zhu Chan Si",24.967834,121.54738
"tt-mb-1177","玄吉寺","Xuan Ji Si",24.980533,121.515154
"tt-mb-1178","銀河洞","Yin He Dong",24.957263,121.574073
"tt-mb-1179","文山禪寺","Wen Shan Chan Si",24.952843,121.683639
"tt-mb-1180","天佛禪寺","Tian Fo Chan Si",24.912138,121.693808
"tt-mb-1181","妙心寺","Miao Xin Si",24.866069,121.551935
"tt-mb-1182","普陀山慈音精舍","Pu Tuo Shan Ci Yin Jing She",24.860877,121.540794
"tt-mb-1183","靈鷲山永和講堂","Ling Jiou Mountain Yonghe Dharma Hall",25.007329,121.506782
"tt-mb-1184","佛光山永和學舍﹝草創期 ﹞","Fo Guang Shan Yung Ho Temple",25.00781,121.51691
"tt-mb-1185","佛光山永和禪淨中心","Fo Guang Shan Yung Ho Temple",25.00781,121.51691
"tt-mb-1186","佛光山永和學舍","Fo Guang Shan Yung Ho Temple",25.002788,121.517361
"tt-mb-1187","永和佛教蓮社","Yong He Buddhist Lotus Society",25.000912,121.517505
"tt-mb-1188","彌陀蓮社","Mi Tuo Lian She",25.007174,121.515763
"tt-mb-1189","常樂寺","Chang Le Si",25.012926,121.521349
"tt-mb-1190","覺苑寺﹝草創期﹞","Jue Yuan Si",25.008795,121.522954
"tt-mb-1191","覺苑寺","Jue Yuan Si",25.008795,121.522954
"tt-mb-1192","慈濟永和聯絡處","Ci Ji Yong He Lian Luo Chu",25.010071,121.510365
"tt-mb-1193","竹林十方講堂","Zhu Lin Shi Fang Jiang Tang",25.013197,121.518003
"tt-mb-1194","法鼓山中和永和共修處","Dharma Drum Mountain Zhong He Yung He Practice Center",24.999335,121.524288
"tt-mb-1195","法鼓山雙和共修處","Dharma Drum Mountain Shuang He Practice Center",25.00538,121.518045
"tt-mb-1196","法鼓山中永和辦事處","Dharma Drum Mountain Zhong Yung He Office",25.004788,121.517054
"tt-mb-1197","地藏菩薩眾修會","Di Cang Pu Sa Zhong Xiu Hui",25.004789,121.517054
"tt-mb-1198","圓通學舍","Yuan Tong Xue She",25.004618,121.517328
"tt-mb-1199","清華寺","Qing Hua Si",25.009509,121.518026
"tt-mb-1200","寧瑪巴智噶經續佛學會","Nyingma Zhi ga Jing Xu Buddhist Institute",25.001088,121.508374
"tt-mb-1201","普光講堂","Pu Guang Jiang Tang",24.999777,121.525681
"tt-mb-1202","慈雲分院","Ci Yun Fen Yuan",25.017077,121.512845
"tt-mb-1203","創古札西叢林","Chuang Gu Zha Xi Cong Lin",25.00903,121.514291
"tt-mb-1204","慈修佛堂","Ci Xiu Fo Tang",25.008303,121.513805
"tt-mb-1205","寂光精舍","Ji Guang Jing She",25.015275,121.516465
"tt-mb-1206","福智蓮舍","Fu Zhi Lian She",25.00236,121.520209
"tt-mb-1207","禪光寺","Chan Guang Si",25.003597,121.522885
"tt-mb-1208","圓覺學苑","Yuan Jue Xue Yuan",25.006011,121.511403
"tt-mb-1209","極樂寺","Ji Le Si",25.000279,121.518163
"tt-mb-1210","創價學會永和講堂","Chuang Jia Xue Hui Yong He Jiang Tang",25.016572,121.515185
"tt-mb-1211","妙空講堂","Miao Kong Jiang Tang",25.012283,121.509601
"tt-mb-1212","佛乘宗永和大自在禪林","Fo Sheng Zong Yong He Da Zi Zai Chan Lin",25.013313,121.51432
"tt-mb-1213","生命電視永和中心","Sheng Ming Dian Shi Yong He Zhong Xin",25.010926,121.511711
"tt-mb-1214","正德佛堂永和分社","Zheng De Fo Tang Yong He Fen She",25.0061,121.51515
"tt-mb-1215","慈生佛堂","Ci Sheng Fo Tang",25.010828,121.515839
"tt-mb-1216","白馬寺","Bai Ma Si",24.978477,121.494374
"tt-mb-1217","圓通禪寺","Yuan Tong Chan Si",24.982664,121.492717
"tt-mb-1218","慈雲岩","Ci Yun Yan",24.981326,121.490587
"tt-mb-1219","中台山普雨精舍﹝草創期 ﹞","Chung Tai Shan Pu Yu Meditation Center",24.993871,121.482701
"tt-mb-1220","中台山普雨精舍","Chung Tai Shan Pu Yu Meditation Center",24.997474,121.49358
"tt-mb-1221","明達佛舍","Ming Da Fo She",24.996668,121.466913
"tt-mb-1222","金山禪寺","Jin Shan Chan Si",24.988583,121.515942
"tt-mb-1223","貢噶精舍﹝草創期﹞","Gong Ga Jing She",25.026307,121.517873
"tt-mb-1224","貢噶精舍﹝草創期 ﹞","Gong Ga Jing She",25.001538,121.511409
"tt-mb-1225","噶瑪三乘法輪中心","Ga Ma San Sheng Buddhist Center",25.00154,121.511409
"tt-mb-1226","白雲寺","Bai Yun Si",24.980002,121.493318
"tt-mb-1227","上寶禪寺","Shang Bao Chan Si",24.98211,121.494015
"tt-mb-1228","總持寺","Zong Chi Si",25.007514,121.482385
"tt-mb-1229","大華嚴寺","Da Hua Yan Si",25.009867,121.481245
"tt-mb-1230","梵音學舍","Fan Yin Xue She",24.992551,121.496783
"tt-mb-1231","大明藏精舍","Da Ming Cang Jing She",24.995693,121.484685
"tt-mb-1232","緬華佛教精舍","Mian Hua Fo Jiao Jing She",24.992296,121.499981
"tt-mb-1233","樂天宮","Le Tian Gong",24.986541,121.499423
"tt-mb-1234","文賢禪修資料圖書館","Wen Xian Chan Xiu Zi Liao Tu Shu Guan",25.004965,121.506471
"tt-mb-1235","玉佛寺","Yu Fo Si",24.993563,121.470654
"tt-mb-1236","觀音禪院","Guan Yin Chan Yuan",24.998598,121.513711
"tt-mb-1237","本願山雙和彌陀助念團","Ben Yuan Shan Shuang He Mi Tuo Zhu Nian Tuan",24.994686,121.522573
"tt-mb-1238","華山講堂","Hua Shan Jiang Tang",24.994557,121.52309
"tt-mb-1239","南山放生寺","Nan Shan Fang Sheng Si",24.984858,121.512878
"tt-mb-1240","緬華佛教弘法會","Mian Hua Fo Jiao Hong Fa Hui",24.985801,121.512213
"tt-mb-1241","淨宗蓮社","Jing Zong Lian She",24.997164,121.502658
"tt-mb-1242","慈濟中和聯絡處","Ci Ji Zhong He Lian Luo Chu",24.998075,121.494204
"tt-mb-1243","正覺蓮社","Zheng Jue Lian She",24.998691,121.498317
"tt-mb-1244","普願寺","Pu Yuan Si",25.002296,121.498742
"tt-mb-1245","淨圓佛教同修會","Jing Yuan Fo Jiao Tong Xiu Hui",24.992094,121.518507
"tt-mb-1246","北堂精舍","Bei Tang Jing She",25.005232,121.49629
"tt-mb-1247","南方寶生佛剎","Nan Fang Bao Sheng Fo Cha",24.99263,121.507059
"tt-mb-1248","聖慈精舍","Sheng Ci Jing She",24.992111,121.502539
"tt-mb-1249","佛教利生中心","Fo Jiao Li Sheng Zhong Xin",24.997646,121.507007
"tt-mb-1250","祥光精舍","Xiang Guang Jing She",25.003452,121.468181
"tt-mb-1251","慈雲講堂","Ci Yun Jiang Tang",24.989366,121.491287
"tt-mb-1252","明德禪寺","Ming De Chan Si",24.984851,121.495386
"tt-mb-1253","法明寺","Fa Ming Si",25.005925,121.482515
"tt-mb-1254","大陳義胞觀音寺","Da Chen Yi Bao Guan Yin Si",25.012656,121.505174
"tt-mb-1255","南山觀音寺","Nan Shan Guan Yin Si",24.973814,121.499378
"tt-mb-1256","紫竹寺","Zi Zhu Si",24.970157,121.491847
"tt-mb-1257","中和解脫大樂法林","Zhong He Jie Tuo Da Le Fa Lin",24.994655,121.516199
"tt-mb-1258","創價學會連城講堂","Chuang Jia Xue Hui Lian Cheng Jiang Tang",25.002148,121.49841
"tt-mb-1259","創價學會雙和文化會館","Chuang Jia Xue Hui Shuang He Wen Hua Hui Guan",25.002992,121.492471
"tt-mb-1260","光明王寺台北分院","Guang Ming Wang Si Taipei Fen Yuan",24.99011,121.50359
"tt-mb-1261","創價學會中和講堂","Chuang Jia Xue Hui Zhong He Jiang Tang",25.000635,121.510935
"tt-mb-1262","信願共修會","Xin Yuan Gong Xiu Hui",24.994667,121.522645
"tt-mb-1263","三介廟","San Jie Miao",24.987852,121.516403
"tt-mb-1264","妙音念佛堂","Miao Yin Nian Fo Tang",24.977406,121.500982
"tt-mb-1265","承天禪寺","Cheng Tian Chan Si",24.950625,121.446363
"tt-mb-1266","廣承岩","Guang Cheng Yan",24.97272,121.444175
"tt-mb-1267","慈濟海山聯絡處","Ci Ji Hai Shan Lian Luo Chu",24.968029,121.437102
"tt-mb-1268","佛教僧伽醫護土城共修會","Fo Jiao Seng Qie Yi Hu Tu Cheng Gong Xiu Hui",24.982025,121.443203
"tt-mb-1269","九品淨苑","Jiu Pin Jing Yuan",24.984315,121.443768
"tt-mb-1270","文殊苑","Wen Shu Yuan",24.977273,121.442108
"tt-mb-1271","頂埔妙覺禪寺","Ding Pu Miao Jue Chan Si",24.952299,121.418978
"tt-mb-1272","永福岩","Yong Fu Yan",24.958048,121.417686
"tt-mb-1273","龍德寺","Long De Si",24.959205,121.4692
"tt-mb-1274","延吉念佛同修會","Yan Ji Nian Fo Tong Xiu Hui",24.985783,121.470643
"tt-mb-1275","法藏蓮社","Fa Cang Lian She",24.985501,121.468734
"tt-mb-1276","大光明法輪精舍","Da Guang Ming Fa Lun Jing She",24.979321,121.464825
"tt-mb-1277","清水岩","Qing Shui Yan",24.97199,121.456786
"tt-mb-1278","法鼓山板橋土城共修處","Dharma Drum Mountain Banqiao Tucheng Practice Center",24.955385,121.448715
"tt-mb-1279","法鼓山土城教育訓練中心","Dharma Drum Mountain Tucheng Education Center",24.955385,121.448715
"tt-mb-1280","龍文禪寺","Long Wen Chan Si",24.976765,121.444462
"tt-mb-1281","靜觀精舍","Jing Guan Jing She",24.987818,121.449752
"tt-mb-1282","慈法禪寺","Ci Fa Chan Si",24.98709,121.458208
"tt-mb-1283","心華菩提精舍","Xin Hua Pu Ti Jing She",24.986804,121.457817
"tt-mb-1284","龍泉山寺","Long Quan Shan Si",24.941922,121.414292
"tt-mb-1285","佛心功德會台北縣一區分會","Fo Xin Gong De Hui Taipei County Yi Qu Fen Hui",24.971006,121.43952
"tt-mb-1286","善息寺","Shan Xi Si",24.942094,121.446425
"tt-mb-1287","普安堂","Pu An Tang",24.944655,121.417806
"tt-mb-1288","西蓮土城講堂","Seeland Tu Cheng Dharma Hall",24.981958,121.443178
"tt-mb-1289","佛光山金光明寺","Fo Guang Shan Golden Light Temple",24.93094,121.409204
"tt-mb-1290","佛靈寺","Fo Ling Si",24.931213,121.412069
"tt-mb-1291","西蓮淨苑","Seeland Monastery",24.934092,121.405175
"tt-mb-1292","西蓮三峽講堂","Seeland San Xia Dharma Hall",24.938203,121.372725
"tt-mb-1293","華德禪寺﹝草創期 ﹞","Hua De Chan Si",24.926586,121.402648
"tt-mb-1294","千佛山華德禪寺","Qian Fo Shan Hua De Chan Si",24.926586,121.402648
"tt-mb-1295","元亨堂","Yuan Heng Tang",24.944959,121.405475
"tt-mb-1296","行修堂","Xing Xiu Tang",24.904773,121.402537
"tt-mb-1297","關帝廟行修宮","Guan Di Miao Xing Xiu Gong",24.904773,121.402537
"tt-mb-1298","台北行天宮三峽分宮","Taipei Xing Tian Gong San Xia Fen Gong",24.904773,121.402537
"tt-mb-1299","貢噶喜金剛佛學會台北分會","Gong Ga Xi Jin Gang Fo Xue Hui Taipei Fen Hui",24.929568,121.367926
"tt-mb-1300","貢噶大印法林","Gong Ga Da Yin Fa Lin",24.929568,121.367926
"tt-mb-1301","雞足山迦葉禪寺","Ji Zu Shan Jia She Chan Si",24.8905,121.379394
"tt-mb-1302","慈德寺","Ci De Si",24.924458,121.367519
"tt-mb-1303","龍山巖","Long Shan Yan",24.871366,121.355453
"tt-mb-1304","蓮香寺","Lian Xiang Si",24.85225,121.372061
"tt-mb-1305","台北佛教淨業林寺","Taipei Fo Jiao Jing Ye Lin Si",24.926627,121.402523
"tt-mb-1306","天南寺","Tiennan Monastery",24.931106,121.395364
"tt-mb-1307","法鼓山天南寺","Dharma Drum Mountain Tiennan Monastery",24.931106,121.395364
"tt-mb-1308","佛國寺","Fo Guo Si",24.924366,121.429181
"tt-mb-1309","天心紫蓮禪苑","Tian Xin Zi Lian Chan Yuan",24.85339,121.427089
"tt-mb-1310","佛山寺","Fo Shan Si",24.871741,121.446956
"tt-mb-1311","普賢寺","Pu Xian Si",24.914656,121.4411
"tt-mb-1312","慈慧寺","Ci Hui Si",24.893273,121.387403
"tt-mb-1313","妙光寺","Miao Guang Si",24.893731,121.387435
"tt-mb-1314","普陀淨苑","Pu Tuo Jing Yuan",24.935536,121.411123
"tt-mb-1315","立德禪寺","Li De Chan Si",24.929095,121.414083
"tt-mb-1316","準提寺","Zhun Ti Si",24.900806,121.394988
"tt-mb-1317","禪光寺","Chan Guang Si",24.904344,121.404003
"tt-mb-1318","藏密噶陀寺","Cang Mi Kathok Temple",24.929617,121.356236
"tt-mb-1319","印覺禪寺","Yin Jue Chan Si",24.870688,121.42374
"tt-mb-1320","大勝寺","Da Sheng Si",24.869556,121.422891
"tt-mb-1321","創價學會三峽講堂","Chuang Jia Xue Hui San Xia Jiang Tang",24.930035,121.381029
"tt-mb-1322","慈濟三峽志業園區","Ci Ji San Xia Zhi Ye Yuan Qu",24.932105,121.385891
"tt-mb-1323","大華嚴寺金華園佛法院","Da Hua Yan Si Jin Hua Yuan Fo Fa Yuan",24.918214,121.464103
"tt-mb-1324","明安堂","Ming An Tang",24.943491,121.400969
"tt-mb-1325","三峽廣照寺","San Xia Guang Zhao Si",24.943351,121.456533
"tt-mb-1326","長福巖","Chang Fu Yan",24.933875,121.37029
"tt-mb-1327","保安寺","Bao An Si",24.93532,121.39701
"tt-mb-1328","中台山普頓精舍","Chung Tai Shan Pu Dun Meditation Center",25.001213,121.416687
"tt-mb-1329","靈鷲山樹林中心","Ling Jiou Mountain Shulin Dharma Center",24.993759,121.425924
"tt-mb-1330","海明禪寺","Hai Ming Chan Si",24.992452,121.410358
"tt-mb-1331","光明寺﹝獨立發展期 ﹞","Guang Ming Monastery",24.992291,121.414155
"tt-mb-1332","西蓮光明寺","Seeland Guang Ming Monastery",24.992291,121.414155
"tt-mb-1333","護國吉祥寺","Hu Guo Ji Xiang Si",24.975462,121.398308
"tt-mb-1334","淨律寺","Jing Lu Si",24.970283,121.388171
"tt-mb-1335","福慧寺","Fu Hui Si",25.0142,121.392995
"tt-mb-1336","法界精舍","Fa Jie Jing She",24.990442,121.416767
"tt-mb-1337","地母庵","Di Mu An",24.991308,121.385094
"tt-mb-1338","樹林佛教文物助念團","Shu Lin Fo Jiao Wen Wu Zhu Nian Tuan",24.981808,121.414697
"tt-mb-1339","樹林蓮社","Shu Lin Lian She",25.001612,121.415719
"tt-mb-1340","法鼓山樹林聯絡處","Dharma Drum Mountain Shulin Liaison Office",24.991423,121.421425
"tt-mb-1341","法鼓山樹林共修處﹝保安一街 ﹞","Dharma Drum Mountain Shulin Practice Center",24.995635,121.420959
"tt-mb-1342","法鼓山樹林共修處","Dharma Drum Mountain Shulin Practice Center",24.995403,121.422631
"tt-mb-1343","普賢寺","Pu Xian Si",24.995432,121.422143
"tt-mb-1344","法藏圖書館","Fa Cang Library",24.995277,121.422685
"tt-mb-1345","般若精舍","Po Ruo Jing She",24.987475,121.416128
"tt-mb-1346","觀自在講堂","Guan Zi Zai Jiang Tang",25.016585,121.403478
"tt-mb-1347","寧瑪白玉菩提昌盛寺台灣閉關中心","Nyingma Palyul Pu Ti Chang Cheng Si Taiwan Retreat Center",25.015355,121.402892
"tt-mb-1348","創價學會華榮講堂","Chuang Jia Xue Hui Hua Rong Jiang Tang",24.978078,121.4068
"tt-mb-1349","創價學會三多講堂","Chuang Jia Xue Hui San Duo Jiang Tang",25.014918,121.42099
"tt-mb-1350","大願地藏茅蓬","Da Yuan Di Cang Mao Peng",24.988271,121.411815
"tt-mb-1351","普提寺","Pu Ti Si",24.990601,121.413795
"tt-mb-1352","救世堂","Jiu Shi Tang",24.982332,121.411434
"tt-mb-1353","法賢精舍","Fa Xian Jing She",25.008067,121.41848
"tt-mb-1354","靜安寺","Jing An Si",24.969857,121.382971
"tt-mb-1355","醒修寺","Xing Xiu Si",24.950189,121.401738
"tt-mb-1356","生命電視樹林菩提講堂","Sheng Ming Dian Shi Shu Lin Pu Ti Jiang Tang",25.015561,121.408926
"tt-mb-1357","比南山普明堂","Bi Nan Shan Pu Ming Tang",24.989247,121.406205
"tt-mb-1358","寧瑪白玉顯密金剛法輪中心","Nyingma Palyul Xian Mi Jin Gang Buddhist Center",24.973307,121.337739
"tt-mb-1359","佛光山鶯歌禪淨中心","Fo Guang Shan Ying Ge Temple",24.95562,121.342272
"tt-mb-1360","高明寺","Gao Ming Si",24.957214,121.362249
"tt-mb-1361","承天農林禪寺","Cheng Tian Nong Lin Chan Si",24.957443,121.361529
"tt-mb-1362","妙音蓮社","Miao Yin Lian She",24.954167,121.345633
"tt-mb-1363","妙音佛學視聽圖書中心","Miao Yin Fo Xue Shi Ting Tu Shu Zhong Xin",24.95393,121.350469
"tt-mb-1364","真善美念佛會","Zhen Shan Mei Chanting Society",24.960325,121.332808
"tt-mb-1365","生命電視鶯歌中心","Sheng Ming Dian Shi Ying Ge Zhong Xin",24.95519,121.353182
"tt-mb-1366","妙善宮","Miao Shan Gong",24.960763,121.358552
"tt-mb-1367","福壽堂","Fu Shou Tang",24.950229,121.34571
"tt-mb-1368","惠隆宮","Hui Long Gong",24.953886,121.344975
"tt-mb-1369","金源禪寺佛蓮德講堂","Jin Yuan Chan Si Fo Lian De Jiang Tang",25.067421,121.496044
"tt-mb-1370","佛光山三重禪淨中心﹝草創期 ﹞","Fo Guang Shan San Chung Temple",25.073282,121.492695
"tt-mb-1371","佛光山三重禪淨中心","Fo Guang Shan San Chung Temple",25.07711,121.485947
"tt-mb-1372","中台山普濟精舍﹝草創期 ﹞","Chung Tai Shan Pu Ji Meditation Center",25.085764,121.489471
"tt-mb-1373","中台山普濟精舍","Chung Tai Shan Pu Ji Meditation Center",25.078204,121.481822
"tt-mb-1374","太璞宮","Tai Pu Gong",25.072146,121.474395
"tt-mb-1375","寧瑪巴聞思修佛學會","Nyingma Wen si xiu Buddhist Institute",25.075725,121.488815
"tt-mb-1376","慈雲寺","Ci Yun Si",25.073056,121.492355
"tt-mb-1377","德林寺","De Lin Si",25.072166,121.49446
"tt-mb-1378","三重學佛同修會","San Chong Xue Fo Tong Xiu Hui",25.076038,121.488001
"tt-mb-1379","三重念佛放生會","San Chong Nian Fo Fang Sheng Hui",25.077883,121.486872
"tt-mb-1380","天霞寺","Tian Xia Si",25.08024,121.485385
"tt-mb-1381","佛慈禪寺","Fo Ci Chan Si",25.076625,121.487173
"tt-mb-1382","海清宮","Hai Qing Gong",25.059602,121.497333
"tt-mb-1383","法巖寺","Fa Yan Si",25.059594,121.497282
"tt-mb-1384","彌陀精舍","Mi Tuo Jing She",25.060158,121.497131
"tt-mb-1385","慈濟三重志業園區","Ci Ji San Chong Zhi Ye Yuan Qu",25.071266,121.473836
"tt-mb-1386","慈心寺","Ci Xin Si",25.063345,121.489633
"tt-mb-1387","法王寺","Fa Wang Si",25.069962,121.472506
"tt-mb-1388","妙藏寺","Miao Cang Si",25.056636,121.494936
"tt-mb-1389","青峰寺","Qing Feng Si",25.082274,121.487734
"tt-mb-1390","大慈學舍","Da Ci Xue She",25.062214,121.500171
"tt-mb-1391","佛林禪苑","Fo Lin Chan Yuan",25.061128,121.499135
"tt-mb-1392","佛教力行學院台北學部","Fo Jiao Li Xing Xue Yuan Taipei Xue Bu",25.06412,121.497087
"tt-mb-1393","法鼓山三重聯絡處","Dharma Drum Mountain San Chung Liaison Office",25.058477,121.489045
"tt-mb-1394","法鼓山三重辦事處","Dharma Drum Mountain San Chung Office",25.063327,121.495673
"tt-mb-1395","慧崇念佛會","Hui Chong Chanting Society",25.07107,121.502398
"tt-mb-1396","慈德禪寺","Ci De Chan Si",25.072475,121.503091
"tt-mb-1397","極樂念佛會三重共修處","Ji Le Chanting Society San Chong Gong Xiu Chu",25.065693,121.499069
"tt-mb-1398","慈願寺","Ci Yuan Si",25.068975,121.50372
"tt-mb-1399","南海普陀寺","Nan Hai Pu Tuo Si",25.069743,121.502968
"tt-mb-1400","法鼓山和喜自在","Dharma Drum Mountain Harmonious Joy and Freedom",25.063336,121.481485
"tt-mb-1401","三重淨宗學苑","San Chung Pureland Learning Center",25.060048,121.485604
"tt-mb-1402","妙音淨宗學苑","Miao yin Pureland Learning Center",25.045712,121.466968
"tt-mb-1403","中華大乘佛學會","Zhong Hua Da Cheng Buddhist Institute",25.078588,121.4899
"tt-mb-1404","中華民國觀音佛學會","Guan Yin Buddhist Institute (R.O.C.)",25.053204,121.48952
"tt-mb-1405","碧華寺","Bi Hua Si",25.082674,121.487304
"tt-mb-1406","如來精舍","Ru Lai Jing She",25.052196,121.487558
"tt-mb-1407","人乘寺台北第一講堂","Ren Sheng Si Taipei Di Yi Jiang Tang",25.071467,121.472011
"tt-mb-1408","創價學會長壽講堂","Chuang Jia Xue Hui Chang Shou Jiang Tang",25.06713,121.495069
"tt-mb-1409","耕心蓮苑","Geng Xin Lian Yuan",25.06959,121.49945
"tt-mb-1410","真言宗虛空藏院","Zhen Yan Zong Xu Kong Cang Yuan",25.072673,121.494471
"tt-mb-1411","生命電視三重中心","Sheng Ming Dian Shi San Chong Zhong Xin",25.080874,121.49288
"tt-mb-1412","西密佛教雲慈正覺會三重佛堂","Xi Mi Fo Jiao Yun Ci Zheng Jue Hui San Chong Fo Tang",25.072461,121.481575
"tt-mb-1413","創價學會三重文化會館","Chuang Jia Xue Hui San Chong Wen Hua Hui Guan",25.045578,121.468341
"tt-mb-1414","一信堂","Yi Xin Tang",25.061097,121.495785
"tt-mb-1415","天基佛堂","Tian Ji Fo Tang",25.066517,121.497372
"tt-mb-1416","香光淨宗學會","Xiang Guang Pureland Learning Center",25.056186,121.469251
"tt-mb-1417","督署宮","Du Shu Gong",25.07314,121.496114
"tt-mb-1418","三元宮","San Yuan Gong",25.065862,121.497328
"tt-mb-1419","慈惠宮","Ci Hui Gong",25.063575,121.49997
"tt-mb-1420","茲方宮","Zi Fang Gong",25.066864,121.495704
"tt-mb-1421","順天宮","Shun Tian Gong",25.081058,121.481682
"tt-mb-1422","普庵宮","Pu An Gong",25.058758,121.491753
"tt-mb-1423","明道堂","Ming Dao Tang",25.055791,121.48743
"tt-mb-1424","鎮重宮","Zhen Chong Gong",25.054114,121.487463
"tt-mb-1425","慈善堂","Ci Shan Tang",25.053849,121.489515
"tt-mb-1426","慈生堂","Ci Sheng Tang",25.070073,121.500256
"tt-mb-1427","普濟寺","Pu Ji Si",25.071507,121.502151
"tt-mb-1428","靈鷲山新莊中港中心","Ling Jiou Mountain Xin Zhuang Zhong Gang Dharma Center",25.045422,121.452736
"tt-mb-1429","中台山普新精舍","Chung Tai Shan Pu Xin Meditation Center (Taipei)",25.04515,121.452403
"tt-mb-1430","擇善堂﹝草創期 ﹞","Ze Shan Tang",25.033413,121.448326
"tt-mb-1431","擇善堂﹝獨立發展期 ﹞","Ze Shan Tang",25.032334,121.447758
"tt-mb-1432","佛光山擇善寺","Fo Guang Shan Ze Shan Temple",25.032334,121.447758
"tt-mb-1433","慈悲寺","Ci Bei Si",25.030896,121.415287
"tt-mb-1434","廣濟寺","Guang Ji Si",25.033992,121.403459
"tt-mb-1435","善導庵","Shan Dao An",25.055017,121.467405
"tt-mb-1436","覺明寺","Jue Ming Si",25.032198,121.447419
"tt-mb-1437","大雄淨舍","Da Xiong Jing She",25.030963,121.425341
"tt-mb-1438","普陀淨苑","Pu Tuo Jing Yuan",25.054208,121.457558
"tt-mb-1439","淨智精舍","Jing Zhi Jing She",25.04734,121.449768
"tt-mb-1440","無相寺","Wu Xiang Si",25.048062,121.452055
"tt-mb-1441","準提寺","Zhun Ti Si",25.021494,121.428006
"tt-mb-1442","達悟精舍","Da Wu Jing She",25.012108,121.42839
"tt-mb-1443","元亨寺台北講堂","Yuan Heng Si Taipei Jiang Tang",25.042125,121.458771
"tt-mb-1444","大雄淨舍圖書館","Da Xiong Jing She Library",25.03769,121.448862
"tt-mb-1445","慈濟新泰聯絡處","Ci Ji Xin Tai Lian Luo Chu",25.044586,121.44263
"tt-mb-1446","新莊佛教圖書館","Xin Zhuang Fo Jiao Library",25.040146,121.445807
"tt-mb-1447","中華聾友普賢佛學會","Zhong Hua Long You Pu Xian Buddhist Institute",25.033382,121.450563
"tt-mb-1448","法鼓山新莊三重共修處","Dharma Drum Mountain Xinzhuang San Chung Practice Center",25.033334,121.449189
